name,time,frame,height,yaw,pitch,roll,lat,lon,east,north,zone.number,zone.letter,image_x,image_y,start_east,start_north,end_east,end_north,heading,project,length,flukeprint_width,fluke_span,body_length,age_class
20240811001A,2024-08-11 05:27:14,1201,80,121.8,-90,0,-20.970308837918,55.175509364928,310321.372143274,7680057.29275611,40,K,617.915,657.8,310323.217048386,7680057.52512787,310319.527238163,7680057.06038435,-97.1787859740804,Aug-11th-2024-09-23AM-Flight-Airdata,NA,3.71896303043674,NA,NA,adult
20240811001A,2024-08-11 05:27:22.600000,1456,80.1,121.8,-89.9,0,-20.9703689068688,55.1754365474618,310313.87575967,7680050.55593269,40,K,266.17,661.435,310315.68259047,7680050.64394171,310312.068928871,7680050.46792366,-92.7886194305269,Aug-11th-2024-09-23AM-Flight-Airdata,NA,3.61794589649794,NA,NA,adult
20240811001A,2024-08-11 05:27:29.400000,1662,80.1,121.8,-89.9,0,-20.9705863702182,55.1754085245314,310311.236179872,7680026.44638691,40,K,519.285,615.74,310312.948280657,7680026.50760086,310309.524079086,7680026.38517296,-92.047664230368,Aug-11th-2024-09-23AM-Flight-Airdata,NA,3.42638949726079,NA,NA,adult
20240811001A,2024-08-11 05:28:11.400000,2921,79.9,124.5,-89.9,0,-20.9709810725797,55.1752334936832,310293.533222553,7679982.53962816,40,K,293.73,859.43,310295.392066581,7679982.36116305,310291.674378525,7679982.71809328,-84.5159180634024,Aug-11th-2024-09-23AM-Flight-Airdata,NA,3.73478294883812,NA,NA,adult
20240811001A,2024-08-11 05:28:23.800000,3290,80.1,124.9,-89.9,0,-20.9712469063881,55.1752086831692,310291.28881006,7679953.07857637,40,K,661.435,601.965,310293.155351192,7679953.33206336,310289.422268929,7679952.82508938,-97.7337817817462,Aug-11th-2024-09-23AM-Flight-Airdata,NA,3.76734996926322,NA,NA,adult
20240811001A,2024-08-11 05:33:09.800000,11861,79.3,122.8,-90,0,-20.9755614079647,55.1756176012377,310339.257497687,7679475.88584861,40,K,540,453.165,310340.956785932,7679476.48523005,310337.558209442,7679475.28646718,-109.42901968106,Aug-11th-2024-09-23AM-Flight-Airdata,NA,3.6037972433602,NA,NA,adult
20240811001A,2024-08-11 05:33:24.800000,12309,78.7,118,-90,0,-20.9758271116661,55.1755349080575,310330.99407008,7679446.37056108,40,K,277.295,710.02,310332.84387249,7679446.58131985,310329.14426767,7679446.1598023,-96.500012590015,Aug-11th-2024-09-23AM-Flight-Airdata,NA,3.72354036702505,NA,NA,adult
20240811001A,2024-08-11 05:33:36.200000,12656,77,113.7,-89.9,0,-20.9760443225164,55.1755708755596,310335.008367128,7679422.36482813,40,K,511.545,506.43,310336.904708854,7679422.88914442,310333.112025401,7679421.84051185,-105.455498617014,Aug-11th-2024-09-23AM-Flight-Airdata,NA,3.93498132913287,NA,NA,adult
20240811001A,2024-08-11 05:33:50.400000,13076,76.9,113.7,-90,0,-20.9762463722855,55.1755267454341,310330.674587098,7679399.94267155,40,K,205.785,646.54,310332.426669286,7679400.33669901,310328.92250491,7679399.54864409,-102.674437347841,Aug-11th-2024-09-23AM-Flight-Airdata,NA,3.59168463704576,NA,NA,adult
20240811001A,2024-08-11 05:34:00.800000,13391,76.9,113.5,-89.9,0,-20.9763059265076,55.1755102111234,310329.030458895,7679393.32955244,40,K,126.245,643.625,310330.699569606,7679393.76363467,310327.361348183,7679392.8954702,-104.577863950998,Aug-11th-2024-09-23AM-Flight-Airdata,NA,3.44926540198933,NA,NA,adult
20240811002A,2024-08-11 05:26:45,330,79.9,139.4,-83.7,0,-20.9698546127871,55.1757016334869,310340.792686813,7680107.80992885,40,K,477.24,414.485,310342.591388803,7680108.03148664,310338.993984823,7680107.58837106,-97.0221211020826,Aug-11th-2024-09-23AM-Flight-Airdata,NA,3.62459195131399,NA,NA,adult
20240811002A,2024-08-11 05:27:08,1020,80,124,-90,0,-20.9702181221935,55.1756156267136,310332.307691138,7680067.46226012,40,K,543.655,517.385,310334.158227579,7680067.65644475,310330.457154697,7680067.2680755,-95.9903659067184,Aug-11th-2024-09-23AM-Flight-Airdata,NA,3.72139371033537,NA,NA,adult
20240811002A,2024-08-11 05:27:20,1380,80.1,121.8,-90,0,-20.9701765482866,55.1755131069043,310321.594297111,7680071.94355773,40,K,130.625,742.135,310323.489344287,7680072.43157141,310319.699249934,7680071.45554405,-104.4410718749,Aug-11th-2024-09-23AM-Flight-Airdata,NA,3.91375070963749,NA,NA,adult
20240811002A,2024-08-11 05:27:24,1501,80.1,121.8,-89.9,0,-20.9704409938292,55.175530575075,310323.744562214,7680042.68633946,40,K,268.545,495.48,310325.714018874,7680042.88808019,310321.775105554,7680042.48459874,-95.8486771735649,Aug-11th-2024-09-23AM-Flight-Airdata,NA,3.95952464686023,NA,NA,adult
20240811002A,2024-08-11 05:27:36.400000,1872,80,121.8,-89.9,0,-20.9705429902159,55.1754791864811,310318.529466056,7680031.33295042,40,K,153.975,641.435,310320.251815238,7680031.54712399,310316.807116874,7680031.11877685,-97.0883261932167,Aug-11th-2024-09-23AM-Flight-Airdata,NA,3.47122861520354,NA,NA,adult
20240811002A,2024-08-11 05:27:36.400000,1872,80,121.8,-89.9,0,-20.9706322579593,55.1754830879481,310319.047847707,7680021.45435164,40,K,269.275,566.275,310320.739542229,7680021.75104975,310317.356153185,7680021.15765352,-99.9476564699013,Aug-11th-2024-09-23AM-Flight-Airdata,NA,3.43503137054214,NA,NA,adult
20240811002A,2024-08-11 05:27:54.800000,2421,80.1,134.5,-89.9,0,-20.970927928198,55.1754447860509,310315.438091199,7679988.67399121,40,K,231.325,575.755,310317.427642071,7679988.63143194,310313.448540328,7679988.71655047,-88.7745504361252,Aug-11th-2024-09-23AM-Flight-Airdata,NA,3.98001204033325,NA,NA,adult
20240811002A,2024-08-11 05:28:32.200000,3542,80.1,124.9,-89.9,0,-20.9712636927797,55.1752707045239,310297.75948954,7679951.29362012,40,K,226.945,671.35,310299.769536937,7679951.1629591,310295.749442144,7679951.42428114,-86.2807806854352,Aug-11th-2024-09-23AM-Flight-Airdata,NA,4.02857932190214,NA,NA,adult
20240811002A,2024-08-11 05:33:09,11840,79.5,126.3,-90,0,-20.975388232032,55.1754654371442,310323.21605265,7679494.87850442,40,K,447.32,808.545,310325.166233308,7679495.29946112,310321.265871991,7679494.45754772,-102.180708091959,Aug-11th-2024-09-23AM-Flight-Airdata,NA,3.99019254786667,NA,NA,adult
20240811002A,2024-08-11 05:33:30.800000,12494,77.1,113.7,-89.9,0,-20.975934043693,55.1754562686742,310322.951756703,7679434.43839304,40,K,443.675,723.89,310324.861369831,7679434.91393798,310321.042143574,7679433.9628481,-103.98375382708,Aug-11th-2024-09-23AM-Flight-Airdata,NA,3.93586853975461,NA,NA,adult
20240811002A,2024-08-11 05:33:35.400000,12628,77,113.7,-89.9,0,-20.9759951459296,55.1754766367334,310325.146870169,7679427.69764411,40,K,520.295,660.405,310326.918509427,7679428.28403013,310323.375230911,7679427.11125808,-108.313769245341,Aug-11th-2024-09-23AM-Flight-Airdata,NA,3.73232058390139,NA,NA,adult
20240811002A,2024-08-11 05:33:58.600000,13324,76.9,113.5,-89.9,0,-20.9763002528667,55.1754177570519,310319.40948859,7679393.84807498,40,K,178.055,768.4,310321.369260006,7679394.25863447,310317.449717174,7679393.43751548,-101.831985092196,Aug-11th-2024-09-23AM-Flight-Airdata,NA,4.00462887230041,NA,NA,adult
20240811001A,2024-08-11 05:27:05.600000,950,80,124,-90,0,-20.9708672799662,55.1752078202051,310290.719826837,7679995.10766897,40,K,1838.555,461.19,310290.507090426,7679989.19708477,310290.932563249,7680001.01825317,2.06132571681103,Aug-11th-2024-09-23AM-Flight-Airdata,11.8288228269895,NA,NA,11.8288228269895,adult
20240811001A,2024-08-11 05:27:18.800000,1343,80.1,121.8,-89.9,0,-20.9710524775831,55.1751414411283,310284.050972135,7679974.52491563,40,K,1737.985,505.73,310283.308681024,7679968.77383026,310284.793263247,7679980.276001,7.35449191092296,Aug-11th-2024-09-23AM-Flight-Airdata,11.5975823385759,NA,NA,11.5975823385759,adult
20240811001A,2024-08-11 05:27:33.800000,1795,80,121.8,-89.9,0,-20.9712510546837,55.1750383632545,310273.582786256,7679952.4173377,40,K,1558.01,601.9,310272.762712547,7679946.81774704,310274.402859965,7679958.01692836,8.33187534248262,Aug-11th-2024-09-23AM-Flight-Airdata,11.3186459318423,NA,NA,11.3186459318423,adult
20240811001A,2024-08-11 05:26:49.600000,467,80.1,139.4,-90,0,-20.970593149428,55.1751903275385,310288.55472741,7680025.43712796,40,K,1764.66,296.36,310289.115838105,7680019.27231011,310287.993616715,7680031.60194582,-5.20062974808646,Aug-11th-2024-09-23AM-Flight-Airdata,12.3806016684009,NA,NA,12.3806016684009,adult
20240811001A,2024-08-11 05:27:52.200000,2345,80.1,121.8,-89.9,0,-20.9714863777784,55.1749325706024,310262.878722486,7679926.23821926,40,K,1479.255,599.105,310262.440246092,7679920.74370437,310263.31719888,7679931.73273415,4.56268095473633,Aug-11th-2024-09-23AM-Flight-Airdata,11.0239657881372,NA,NA,11.0239657881372,adult
20240811001A,2024-08-11 05:28:13,2966,80,124.5,-90,0,-20.9717886097461,55.1748737701558,310257.14580061,7679892.70704448,40,K,1681.845,613.105,310258.946927759,7679887.10769827,310255.34467346,7679898.3063907,-17.8312906464821,Aug-11th-2024-09-23AM-Flight-Airdata,11.7637982008665,NA,NA,11.7637982008665,adult
20240811002A,2024-08-11 05:28:18.400000,3127,80.1,124.5,-89.9,0,-20.9718524777956,55.1749893028423,310269.240434518,7679885.77294383,40,K,1676.68,328.75,310270.459901622,7679879.78196963,310268.020967414,7679891.76391804,-11.5054147563775,Aug-11th-2024-09-23AM-Flight-Airdata,12.2276525873445,NA,NA,12.2276525873445,adult
20240811002A,2024-08-11 05:27:07.200000,997,80,124,-89.9,0,-20.970847013671,55.1752881913907,310299.051919327,7679997.44673469,40,K,1707.99,365.95,310299.590298608,7679991.57138435,310298.513540046,7680003.32208504,-5.23559511532734,Aug-11th-2024-09-23AM-Flight-Airdata,11.799931178307,NA,NA,11.799931178307,adult
20240811002A,2024-08-11 05:27:20.200000,1387,80.1,121.8,-89.9,0,-20.9710461596777,55.1752287515768,310293.122264263,7679975.32792581,40,K,1562.135,382.885,310293.275046186,7679969.55157323,310292.96948234,7679981.10427838,-1.51509430867703,Aug-11th-2024-09-23AM-Flight-Airdata,11.5567454566145,NA,NA,11.5567454566145,adult
20240811002A,2024-08-11 05:27:36.400000,1868,80,121.8,-89.9,0,-20.9712805392034,55.1751416951816,310284.365310453,7679949.27550785,40,K,1470.42,449.19,310284.057801896,7679943.57883494,310284.67281901,7679954.97218077,3.08984900843127,Aug-11th-2024-09-23AM-Flight-Airdata,11.409933174207,NA,NA,11.409933174207,adult
20240811002A,2024-08-11 05:27:53.600000,2387,80.1,124.3,-89.9,0,-20.9715046987539,55.1750334468534,310273.391777337,7679924.32945072,40,K,1396.375,437.775,310272.77571122,7679918.89735419,310274.007843454,7679929.76154725,6.47039451019443,Aug-11th-2024-09-23AM-Flight-Airdata,10.9338392543085,NA,NA,10.9338392543085,adult
20240811002A,2024-08-11 05:26:51.600000,528,80.1,139.4,-89.9,0,-20.9705479679054,55.1752581739324,310295.55294728,7680030.51981792,40,K,1640.585,288.23,310296.542948063,7680024.54284871,310294.562946497,7680036.49678713,-9.40485123503477,Aug-11th-2024-09-23AM-Flight-Airdata,12.1168085664752,NA,NA,12.1168085664752,adult
20240811002A,2024-08-11 05:27:07.800000,1013,80,124,-89.9,0,-20.9707975115438,55.1752839236094,310298.54563046,7680002.92227312,40,K,1634.63,410.24,310300.382611515,7680003.00700406,310296.708649405,7680002.83754219,-92.640901802006,Aug-11th-2024-09-23AM-Flight-Airdata,3.67786825613068,NA,3.67786825613068,NA,adult
20240811002A,2024-08-11 05:26:54,598,80.1,139.4,-90,0,-20.9705307902199,55.1752507940318,310294.763836882,7680032.41288503,40,K,1632.325,315.79,310296.52947498,7680032.62895881,310292.998198783,7680032.19681124,-96.9770034101006,Aug-11th-2024-09-23AM-Flight-Airdata,3.55762042596051,NA,3.55762042596051,NA,adult
20240811002A,2024-08-11 05:27:21.200000,1413,80.1,121.8,-90,0,-20.9710075743861,55.1752135860185,310291.496512785,7679979.58189167,40,K,1440.44,412.99,310293.255878615,7679979.36059867,310289.737146956,7679979.80318467,-82.8309858156445,Aug-11th-2024-09-23AM-Flight-Airdata,3.54645666240137,NA,3.54645666240137,NA,adult
20240811002A,2024-08-11 05:27:37,1886,80,121.8,-89.9,0,-20.9712320071389,55.1751419152923,310284.326929104,7679954.64896807,40,K,1374.96,482.5,310286.082777266,7679954.42456533,310282.571080942,7679954.8733708,-82.7169071127425,Aug-11th-2024-09-23AM-Flight-Airdata,3.54025951250811,NA,3.54025951250811,NA,adult
20240811001A,2024-08-11 05:26:49.600000,467,80.1,139.4,-90,0,-20.9705347449782,55.1751860769221,310288.038981827,7680031.89830196,40,K,1708.85,368.7,310289.823736652,7680031.9385641,310286.254227002,7680031.85803982,-91.2923117580775,Aug-11th-2024-09-23AM-Flight-Airdata,3.57041780484138,NA,3.57041780484138,NA,adult
20240811001A,2024-08-11 05:27:21.400000,1421,80.1,121.8,-89.9,0,-20.9710318183475,55.1751181776715,310281.6057623,7679976.78460571,40,K,1538.64,508.31,310283.270513628,7679976.38258351,310279.941010971,7679977.18662791,-76.42352740313,Aug-11th-2024-09-23AM-Flight-Airdata,3.42521172071776,NA,3.42521172071776,NA,adult
20240811001A,2024-08-11 05:27:23.600000,1484,80.1,121.8,-89.9,0,-20.9710558743888,55.1750988950619,310279.630966009,7679974.09839014,40,K,1500.745,510.06,310281.333995332,7679973.7631683,310277.927936685,7679974.43361198,-78.8643432827146,Aug-11th-2024-09-23AM-Flight-Airdata,3.47141617056977,NA,3.47141617056977,NA,adult
20240811001A,2024-08-11 05:27:38.600000,1936,80.1,121.8,-89.9,0,-20.9712572552794,55.1750236609039,310272.061743853,7679951.71340764,40,K,1499.88,600.415,310273.753298865,7679951.27522032,310270.370188841,7679952.15159496,-75.4770976377129,Aug-11th-2024-09-23AM-Flight-Airdata,3.494776951742,NA,3.494776951742,NA,adult
20240811003A,2024-08-11 05:54:17.400000,5491,82.5,343.4,-38.7,0,-20.982743697398,55.1764332807868,310433.140336768,7678681.66953181,40,K,537.21,578.485,310434.538888693,7678683.54114824,310431.741784844,7678679.79791539,-143.231340371553,Aug-11th-2024-09-50AM-Flight-Airdata,NA,4.67285589128702,NA,NA,adult
20240811004A,2024-08-11 05:54:17.400000,5491,82.5,343.4,-38.7,0,-20.9828197871232,55.1766257564144,310453.250018663,7678673.47345744,40,K,674.77,661.74,310455.345095291,7678674.28167132,310451.154942036,7678672.66524357,-111.095026840664,Aug-11th-2024-09-50AM-Flight-Airdata,NA,4.49112713574155,NA,NA,adult
20240811004A,2024-08-11 05:54:17.400000,5491,82.5,343.4,-38.7,0,-20.9829437415573,55.176669135068,310457.916976485,7678659.80132427,40,K,650.155,767.445,310460.433001437,7678659.91069699,310455.400951532,7678659.69195156,-92.489105749227,Aug-11th-2024-09-50AM-Flight-Airdata,NA,5.03680214133764,NA,NA,adult
20240811003A,2024-08-11 05:54:38.800000,6129,82.8,308.1,-89.5,0,-20.9831009775055,55.1766387163303,310454.952484388,7678642.35697111,40,K,456.12,789.89,310457.132850279,7678642.67065505,310452.772118498,7678642.04328718,-98.1868294685207,Aug-11th-2024-09-50AM-Flight-Airdata,NA,4.40562959211468,NA,NA,adult
20240811005A,2024-08-11 05:56:30.200000,9471,82.8,336.8,-42.1,0,-20.9845017533334,55.1759646083387,310386.62743111,7678486.4715432,40,K,448.155,876.045,310387.914790971,7678487.35808784,310385.340071248,7678485.58499857,-124.553370164767,Aug-11th-2024-09-50AM-Flight-Airdata,NA,3.12618413018107,NA,NA,adult
20240811005A,2024-08-11 05:56:43.200000,9858,82.8,329,-42.1,0,-20.9843259493049,55.175683958309,310357.223712042,7678505.60277273,40,K,476.39,579.93,310358.433727188,7678507.24092479,310356.013696897,7678503.96462067,-143.548704254946,Aug-11th-2024-09-50AM-Flight-Airdata,NA,4.07317018010026,NA,NA,adult
20240811005A,2024-08-11 05:56:43.200000,9858,82.8,329,-42.1,0,-20.9842952751603,55.1756207416033,310350.611757048,7678508.9238691,40,K,455.395,540.83,310351.962118955,7678510.43640018,310349.261395141,7678507.41133802,-138.242066812253,Aug-11th-2024-09-50AM-Flight-Airdata,NA,4.0552324467038,NA,NA,adult
20240811005A,2024-08-11 05:56:33.200000,9563,82.9,336.8,-42.1,0,-20.9844189157156,55.1758765878143,310377.370546079,7678495.53849033,40,K,433.09,765.225,310379.075725639,7678496.39044445,310375.66536652,7678494.68653622,-116.547961331211,Aug-11th-2024-09-50AM-Flight-Airdata,NA,3.81232901876399,NA,NA,adult
20240811006A,2024-08-11 05:56:40,9764,82.8,329,-42.1,0,-20.9844678185132,55.1757084805251,310359.952667507,7678489.92487171,40,K,362.725,685.635,310361.468958663,7678490.97456332,310358.436376351,7678488.8751801,-124.693916588285,Aug-11th-2024-09-50AM-Flight-Airdata,NA,3.68835537429783,NA,NA,adult
20240811006A,2024-08-11 05:56:43.800000,9879,82.8,329,-42.1,0,-20.9844429476199,55.1756771372869,310356.662220139,7678492.64126761,40,K,363.45,654.495,310357.922387858,7678493.87913494,310355.40205242,7678491.40340027,-134.488524437782,Aug-11th-2024-09-50AM-Flight-Airdata,NA,3.53289582224869,NA,NA,adult
20240811007A,2024-08-11 05:56:38.200000,9712,82.8,329,-42.1,0,-20.9846516863509,55.1756833269355,310357.569421611,7678469.53819471,40,K,146.245,815.95,310358.93895856,7678471.01090791,310356.199884662,7678468.06548151,-137.078975753323,Aug-11th-2024-09-50AM-Flight-Airdata,NA,4.0221962295887,NA,NA,adult
20240811007A,2024-08-11 05:56:38.200000,9712,82.8,329,-42.1,0,-20.9846020863535,55.1756120048184,310350.090786764,7678474.94504385,40,K,149.865,742.825,310351.464462374,7678476.30992882,310348.717111154,7678473.58015888,-134.816084133563,Aug-11th-2024-09-50AM-Flight-Airdata,NA,3.87292946854044,NA,NA,adult
20240811007A,2024-08-11 05:56:56.800000,10266,82.8,329,-36.6,0,-20.984576035128,55.1755554496132,310344.177335973,7678477.76221355,40,K,128.87,800.03,310345.205233654,7678479.34042216,310343.149438293,7678476.18400494,-146.923536370862,Aug-11th-2024-09-50AM-Flight-Airdata,NA,3.76686397473748,NA,NA,adult
20240811008A,2024-08-11 05:56:39.200000,9740,82.8,329,-42.1,0,-20.984536031578,55.1758818386851,310378.064410939,7678482.57828887,40,K,440.2,819.575,310379.282262965,7678483.8747184,310376.846558913,7678481.28185934,-136.790051955458,Aug-11th-2024-09-50AM-Flight-Airdata,NA,3.5574671285697,NA,NA,adult
20240811008A,2024-08-11 05:56:51.800000,10116,82.9,329,-36.6,0,-20.984445373021,55.1757765020558,310366.997134971,7678492.49058692,40,K,431.51,803.645,310368.312236627,7678493.73411521,310365.682033316,7678491.24705863,-133.397664852737,Aug-11th-2024-09-50AM-Flight-Airdata,NA,3.61986462130353,NA,NA,adult
20240811009A,2024-08-11 05:56:48.200000,10009,82.8,329,-41.4,0,-20.9843985758265,55.1758338670326,310372.902796101,7678497.73974859,40,K,532.145,698.665,310374.575315228,7678498.6242152,310371.230276974,7678496.85528197,-117.870916703294,Aug-11th-2024-09-50AM-Flight-Airdata,NA,3.78396692463309,NA,NA,adult
20240811009A,2024-08-11 05:57:01,10394,82.9,326,-36.6,0,-20.9843584995021,55.1757496376628,310364.094097215,7678502.07688828,40,K,544.45,716.045,310365.72572087,7678503.2843579,310362.46247356,7678500.86941867,-126.502986471931,Aug-11th-2024-09-50AM-Flight-Airdata,NA,4.05964462281311,NA,NA,adult
20240811009A,2024-08-11 05:57:03.800000,10475,82.9,324.3,-36.6,0,-20.9844080213205,55.1758294581757,310372.456294638,7678496.68876649,40,K,586.44,774.69,310373.816621326,7678497.85994317,310371.09596795,7678495.51758981,-130.726888356294,Aug-11th-2024-09-50AM-Flight-Airdata,NA,3.59006602223859,NA,NA,adult
20240811010A,2024-08-11 05:56:56.800000,10270,82.8,329,-36.6,0,-20.9843166788655,55.1758712564405,310376.687098486,7678506.85127327,40,K,629.155,746.45,310378.182193747,7678508.04668708,310375.192003225,7678505.65585945,-128.644326459961,Aug-11th-2024-09-50AM-Flight-Airdata,NA,3.82848483000708,NA,NA,adult
20240811010A,2024-08-11 05:56:41.800000,9818,82.8,329,-42.1,0,-20.984433143508,55.1760208083687,310392.384424402,7678494.13429139,40,K,671.15,793.505,310393.824354306,7678495.4821218,310390.944494499,7678492.78646098,-133.107802257653,Aug-11th-2024-09-50AM-Flight-Airdata,NA,3.94463937010458,NA,NA,adult
20240811010A,2024-08-11 05:57:08.600000,10622,82.9,324.3,-36.6,0,-20.9842829393535,55.175753762949,310364.427623472,7678510.44738795,40,K,641.045,664.675,310365.607747536,7678511.85789503,310363.247499408,7678509.03688087,-140.081905171454,Aug-11th-2024-09-50AM-Flight-Airdata,NA,3.67816423470055,NA,NA,adult
20240811011A,2024-08-11 05:57:27.200000,11177,82.9,324.3,-33.1,0,-20.9845506839097,55.1752821981663,310315.732915648,7678480.24483032,40,K,99.55,702.385,310317.406232341,7678481.48665248,310314.059598954,7678479.00300816,-126.580298772116,Aug-11th-2024-09-50AM-Flight-Airdata,NA,4.16754653299682,NA,NA,adult
20240811011A,2024-08-11 05:57:16.800000,10868,83,324.3,-33.1,0,-20.9845882189516,55.1753911445554,310327.108458125,7678476.21839315,40,K,110.115,763.73,310328.832442928,7678477.3528339,310325.384473322,7678475.0839524,-123.346278896095,Aug-11th-2024-09-50AM-Flight-Airdata,NA,4.12750743695977,NA,NA,adult
20240811013A,2024-08-11 06:06:02.400000,26622,82.5,147.5,-35.2,0,-20.9843586563059,55.1769140205976,310485.165738277,7678503.44002136,40,K,293.355,751.615,310482.853187642,7678503.14512212,310487.478288912,7678503.73492061,82.7327960389861,Aug-11th-2024-09-50AM-Flight-Airdata,NA,4.66255552392295,NA,NA,adult
20240811013A,2024-08-11 06:06:02.400000,26622,82.5,147.5,-35.2,0,-20.9843659496598,55.1768533845097,310478.870060797,7678502.56067299,40,K,342.975,771.325,310476.672863352,7678502.43376803,310481.067258243,7678502.68757794,86.6944029896551,Aug-11th-2024-09-50AM-Flight-Airdata,NA,4.40171852045647,NA,NA,adult
20240811013A,2024-08-11 06:06:29.400000,27428,82.6,125.3,-73.8,0,-20.9846131210364,55.1769642786186,310490.712645228,7678475.32665532,40,K,556.78,489.645,310488.760032792,7678474.35262156,310492.665257664,7678476.30068909,63.488318276951,Aug-11th-2024-09-50AM-Flight-Airdata,NA,4.36414349377676,NA,NA,adult
20240811013A,2024-08-11 06:06:37.200000,27662,82.6,120,-90,0,-20.9846185775037,55.1769685628013,310491.16499557,7678474.72762295,40,K,681.57,504.975,310489.550646522,7678473.89907165,310492.779344618,7678475.55617426,62.8312126908604,Aug-11th-2024-09-50AM-Flight-Airdata,NA,3.62911565761865,NA,NA,adult
20240811012A,2024-08-11 06:06:20.600000,27162,82.7,135.2,-52.3,0,-20.9846431837524,55.1769832839172,310492.726732495,7678472.0208021,40,K,642.165,444.405,310490.432906578,7678471.86639031,310495.020558411,7678472.1752139,86.1488721090563,Aug-11th-2024-09-50AM-Flight-Airdata,NA,4.59803450967017,NA,NA,adult
20240811012A,2024-08-11 06:06:35.800000,27621,82.6,120,-90,0,-20.9846276393384,55.1770472544936,310499.358702589,7678473.81760984,40,K,631.945,405.73,310497.325036505,7678473.6131493,310501.392368673,7678474.02207039,84.258893475872,Aug-11th-2024-09-50AM-Flight-Airdata,NA,4.08783652040778,NA,NA,adult
20240811012A,2024-08-11 06:06:41.600000,27794,82.6,124.6,-89.9,0,-20.9847749653733,55.177077042682,310502.641955055,7678457.54178696,40,K,745.785,288.24,310500.428968621,7678457.45867536,310504.85494149,7678457.62489855,87.8491930697434,Aug-11th-2024-09-50AM-Flight-Airdata,NA,4.42909313345728,NA,NA,adult
20240811005A,2024-08-11 05:56:13.400000,8970,82.8,336.8,-42.1,0,-20.9841934019821,55.1766127947876,310453.635983288,7678521.37902236,40,K,1419.975,828.76,310451.720417487,7678527.5578378,310455.551549088,7678515.20020691,162.775438537705,Aug-11th-2024-09-50AM-Flight-Airdata,12.9378750391491,NA,NA,12.9378750391491,adult
20240811005A,2024-08-11 05:56:44.600000,9902,82.8,329,-42.1,0,-20.983760858668,55.17637190311,310428.042246129,7678568.98226836,40,K,1380.49,477.195,310424.551288391,7678574.03099872,310431.533203868,7678563.93353799,145.337979090305,Aug-11th-2024-09-50AM-Flight-Airdata,12.2762313756347,NA,NA,12.2762313756347,adult
20240811006A,2024-08-11 05:57:54.200000,11991,83.1,307.1,-53.1,0,-20.9836682267091,55.1752705901384,310313.41127459,7678577.93192106,40,K,1442.535,569.325,310309.700900258,7678583.32381271,310317.121648921,7678572.54002941,145.466598699505,Aug-11th-2024-09-50AM-Flight-Airdata,13.0903587838401,NA,NA,13.0903587838401,adult
20240811006A,2024-08-11 05:58:18.800000,12727,83.7,290.9,-55.4,0,-20.9835334699314,55.1748791731931,310272.541653178,7678592.38708796,40,K,1401.195,439.51,310266.632465199,7678595.13975428,310278.450841157,7678589.63442164,114.977430787407,Aug-11th-2024-09-50AM-Flight-Airdata,13.0377412845549,NA,NA,13.0377412845549,adult
20240811006A,2024-08-11 05:58:22.800000,12846,83.7,287.8,-46.6,0,-20.9835294930299,55.1747949333176,310263.777391991,7678592.72743527,40,K,1371.455,563.52,310258.173771223,7678596.0255048,310269.381012759,7678589.42936574,120.479383583162,Aug-11th-2024-09-50AM-Flight-Airdata,13.0042805804136,NA,NA,13.0042805804136,adult
20240811006A,2024-08-11 05:57:48.600000,11818,83.1,305.1,-54.6,0,-20.9837022097568,55.1753054707966,310317.08107396,7678574.21088023,40,K,1474.66,601.52,310312.691989867,7678578.88694023,310321.470158053,7678569.53482023,136.813210960766,Aug-11th-2024-09-50AM-Flight-Airdata,12.8264720417391,NA,NA,12.8264720417391,adult
20240811007A,2024-08-11 05:56:25.400000,9325,82.8,336.8,-42.1,0,-20.9843010139247,55.1763332487543,310424.704867685,7678509.13341628,40,K,1010.68,835.535,310422.388282063,7678514.98559142,310427.021453306,7678503.28124114,158.403846259648,Aug-11th-2024-09-50AM-Flight-Airdata,12.5880137872113,NA,NA,12.5880137872113,adult
20240811007A,2024-08-11 05:56:38.600000,9722,82.8,329,-42.1,0,-20.9840821189122,55.1762387412379,310414.601715986,7678533.25622111,40,K,1126.495,622.2,310412.223040712,7678539.0073591,310416.980391261,7678527.50508311,157.52997363192,Aug-11th-2024-09-50AM-Flight-Airdata,12.4472782965371,NA,NA,12.4472782965371,adult
20240811007A,2024-08-11 05:56:53,10154,82.8,329,-36.6,0,-20.9839140924572,55.1761354225149,310403.646575903,7678551.73668615,40,K,1104.665,595.09,310400.350185522,7678556.76198935,310406.942966283,7678546.71138294,146.736787451053,Aug-11th-2024-09-50AM-Flight-Airdata,12.0199603714887,NA,NA,12.0199603714887,adult
20240811007A,2024-08-11 05:56:07,8778,82.7,333.2,-59.5,0,-20.9844529047789,55.1763509550271,310426.7376951,7678492.33788657,40,K,988.05,654.565,310425.53623752,7678498.65035896,310427.939152681,7678486.02541419,169.223743924191,Aug-11th-2024-09-50AM-Flight-Airdata,12.8515847955752,NA,NA,12.8515847955752,adult
20240811008A,2024-08-11 05:56:32.400000,9539,82.9,336.8,-42.1,0,-20.9841280924171,55.1765196495363,310443.868380353,7678528.49932026,40,K,1312.06,733.38,310442.413474992,7678533.91785158,310445.323285714,7678523.08078895,164.970266191907,Aug-11th-2024-09-50AM-Flight-Airdata,11.2209146122701,NA,NA,11.2209146122701,adult
20240811008A,2024-08-11 05:57:42.200000,11628,82.7,307.6,-46.8,0,-20.9836942342231,55.1754483427173,310331.926759998,7678575.26336143,40,K,1437.565,602.755,310327.888099622,7678579.5237881,310335.965420374,7678571.00293475,136.530680382117,Aug-11th-2024-09-50AM-Flight-Airdata,11.7408710160401,NA,NA,11.7408710160401,adult
20240811008A,2024-08-11 05:57:49.600000,11852,83.1,306.1,-54.7,0,-20.9837856577072,55.1753179186949,310318.480801302,7678564.98674372,40,K,1397.43,656.76,310314.301743691,7678569.00233069,310322.659858912,7678560.97115676,133.857188283945,Aug-11th-2024-09-50AM-Flight-Airdata,11.5912831388458,NA,NA,11.5912831388458,adult
20240811008A,2024-08-11 05:57:53.800000,11976,83.1,306.8,-53.1,0,-20.983750942527,55.1752933922647,310315.88670707,7678568.80112518,40,K,1397.81,639.78,310312.089813733,7678572.99687747,310319.683600408,7678564.60537289,137.85687535199,Aug-11th-2024-09-50AM-Flight-Airdata,11.3173735945739,NA,NA,11.3173735945739,adult
20240811009A,2024-08-11 05:56:29.600000,9455,82.8,336.8,-42.1,0,-20.9841850353523,55.1766118791622,310453.530217001,7678522.3042442,40,K,1417.23,819.685,310452.803842282,7678528.54193182,310454.25659172,7678516.06655658,173.357858935508,Aug-11th-2024-09-50AM-Flight-Airdata,12.5596762816835,NA,NA,12.5596762816835,adult
20240811009A,2024-08-11 05:56:32.400000,9538,82.9,336.8,-42.1,0,-20.9841434598229,55.1766062432886,310452.891726985,7678526.90057731,40,K,1416.805,777.45,310451.791751412,7678533.18247449,310453.991702557,7678520.61868012,170.068059196756,Aug-11th-2024-09-50AM-Flight-Airdata,12.7549486049168,NA,NA,12.7549486049168,adult
20240811009A,2024-08-11 05:56:39.800000,9757,82.8,329,-42.1,0,-20.9839905201148,55.1765517899463,310447.036666952,7678543.76867017,40,K,1505.49,676.94,310445.10610437,7678549.59790716,310448.967229533,7678537.93943318,161.675844272289,Aug-11th-2024-09-50AM-Flight-Airdata,12.2812174927721,NA,NA,12.2812174927721,adult
20240811009A,2024-08-11 05:56:47,9972,82.8,329,-42.1,0,-20.9838982888776,55.1765026740044,310441.813205793,7678553.92178085,40,K,1474.245,595.015,310438.689592613,7678559.28870853,310444.936818973,7678548.55485316,149.800106250929,Aug-11th-2024-09-50AM-Flight-Airdata,12.4194801965502,NA,NA,12.4194801965502,adult
20240811009A,2024-08-11 05:57:40.400000,11575,82.9,307.6,-46.7,0,-20.9837795051338,55.1755679138984,310344.467406419,7678565.96445572,40,K,1381.625,572.835,310338.928653987,7678568.46846379,310350.006158852,7678563.46044764,114.327194121886,Aug-11th-2024-09-50AM-Flight-Airdata,12.1569461523238,NA,NA,12.1569461523238,adult
20240811010A,2024-08-11 05:57:05.400000,10524,82.9,324.3,-36.6,0,-20.9835105938381,55.1763493027898,310425.376355942,7678596.66342133,40,K,1512.175,490.57,310421.308187012,7678601.29147052,310429.444524873,7678592.03537214,138.683735005125,Aug-11th-2024-09-50AM-Flight-Airdata,12.3237717835282,NA,NA,12.3237717835282,adult
20240811010A,2024-08-11 05:56:29,9435,82.8,336.8,-42.1,0,-20.984082502195,55.1766928583119,310461.820950656,7678533.75214239,40,K,1535.47,751.02,310460.366531436,7678540.00385043,310463.275369876,7678527.50043436,166.903467323438,Aug-11th-2024-09-50AM-Flight-Airdata,12.8373188181191,NA,NA,12.8373188181191,adult
20240811010A,2024-08-11 05:55:50.600000,8282,82.7,213.7,-78.4,0,-20.9844988448821,55.1761948895965,310410.568167572,7678487.066612,40,K,1537.3,692.64,310408.763708874,7678492.37985114,310412.372626269,7678481.75337286,161.241713324567,Aug-11th-2024-09-50AM-Flight-Airdata,11.2225810516264,NA,NA,11.2225810516264,adult
20240811010A,2024-08-11 05:55:51.800000,8320,82.7,214.8,-78.4,0,-20.9844807785435,55.1762046950254,310411.564917284,7678489.07844428,40,K,1561.01,769.26,310408.888601017,7678494.12082398,310414.241233551,7678484.03606457,152.042223232563,Aug-11th-2024-09-50AM-Flight-Airdata,11.4172259013584,NA,NA,11.4172259013584,adult
20240811010A,2024-08-11 05:58:00.400000,12175,83.1,307.1,-50.3,0,-20.9835518689369,55.1754084494039,310327.598863848,7678590.97795004,40,K,1677.77,653.72,310323.650671084,7678595.78085114,310331.547056613,7678586.17504894,140.578314107272,Aug-11th-2024-09-50AM-Flight-Airdata,12.4348035861652,NA,NA,12.4348035861652,adult
20240811010A,2024-08-11 05:56:32.200000,9533,82.9,336.8,-42.1,0,-20.9840325119162,55.1766862350817,310461.069177669,7678539.27893998,40,K,1530.605,705.405,310458.691100532,7678544.49846752,310463.447254807,7678534.05941244,155.505441212733,Aug-11th-2024-09-50AM-Flight-Airdata,11.4714809184415,NA,NA,11.4714809184415,adult
20240811011A,2024-08-11 05:57:08,10603,82.9,324.3,-36.6,0,-20.9839150587676,55.1760525954989,310395.035494277,7678551.53149063,40,K,1110.645,578.55,310393.229170013,7678557.66330987,310396.841818542,7678545.39967139,163.585969616758,Aug-11th-2024-09-50AM-Flight-Airdata,12.7846805999708,NA,NA,12.7846805999708,adult
20240811011A,2024-08-11 05:57:10,10665,82.9,324.3,-36.6,0,-20.9838815810026,55.1760448335044,310394.186138815,7678555.22876149,40,K,1120.745,560.675,310392.216094831,7678561.26070867,310396.156182799,7678549.19681432,161.912875956515,Aug-11th-2024-09-50AM-Flight-Airdata,12.6910141411775,NA,NA,12.6910141411775,adult
20240811011A,2024-08-11 05:57:55.600000,12032,83.1,307.1,-52.5,0,-20.9834510611957,55.1750768507165,310292.992000568,7678601.74546846,40,K,1433.17,352.505,310289.407504944,7678606.58280551,310296.576496192,7678596.90813141,143.461333490307,Aug-11th-2024-09-50AM-Flight-Airdata,12.0413352420809,NA,NA,12.0413352420809,adult
20240811011A,2024-08-11 05:58:10.200000,12466,83.3,306.6,-45.8,0,-20.9833786021179,55.1749073269417,310275.273421403,7678609.56661572,40,K,1415.865,456.315,310270.534271743,7678612.66350268,310280.012571062,7678606.46972877,123.16336761912,Aug-11th-2024-09-50AM-Flight-Airdata,11.3225877411997,NA,NA,11.3225877411997,adult
20240811011A,2024-08-11 05:58:19.200000,12738,83.8,290.2,-55.4,0,-20.9833194225998,55.1746750000448,310251.041342979,7678615.84298164,40,K,1478.29,252.205,310245.252158467,7678616.59376701,310256.830527491,7678615.09219626,97.3893090371306,Aug-11th-2024-09-50AM-Flight-Airdata,11.6753305723941,NA,NA,11.6753305723941,adult
20240811013A,2024-08-11 06:06:27.600000,27372,82.6,135.2,-71.5,0,-20.9852441388797,55.1765141458121,310444.704884157,7678404.93025834,40,K,1582.41,355.855,310446.314319261,7678398.77379411,310443.095449052,7678411.08672257,-14.6505046310796,Aug-11th-2024-09-50AM-Flight-Airdata,12.7267172798633,NA,NA,12.7267172798633,adult
20240811013A,2024-08-11 06:06:29,27419,82.6,130.2,-73.8,0,-20.9852479083716,55.1765809255159,310451.653291514,7678404.5920883,40,K,1585.3,329.395,310453.658573266,7678398.46146936,310449.648009763,7678410.72270724,-18.1125517219833,Aug-11th-2024-09-50AM-Flight-Airdata,12.900487353006,NA,NA,12.900487353006,adult
20240811013A,2024-08-11 06:06:29,27415,82.6,130.2,-73.8,0,-20.9852471258323,55.1765804425313,310451.602083751,7678404.67815419,40,K,1585.08,330.41,310453.590095101,7678398.64792818,310449.6140724,7678410.7083802,-18.2460666625013,Aug-11th-2024-09-50AM-Flight-Airdata,12.6989471809639,NA,NA,12.6989471809639,adult
20240811012A,2024-08-11 06:05:48,26189,82.2,117.7,-38.4,0,-20.9851240987469,55.1764509654845,310437.983957866,7678418.14554085,40,K,1734.35,573.33,310435.342226176,7678412.77175918,310440.625689555,7678423.51932253,26.1785649082249,Aug-11th-2024-09-50AM-Flight-Airdata,11.9760220113226,NA,NA,11.9760220113226,adult
20240811012A,2024-08-11 06:06:06.800000,26749,82.5,147.5,-35.2,0,-20.9851965660324,55.1761300923986,310404.711541859,7678409.74191177,40,K,1437.19,551.295,310403.44904862,7678403.45747463,310405.974035098,7678416.02634891,11.3590669976934,Aug-11th-2024-09-50AM-Flight-Airdata,12.8199905345347,NA,NA,12.8199905345347,adult
20240811012A,2024-08-11 06:06:17,27059,82.6,139.7,-52.3,0,-20.9852504068577,55.1763361989189,310426.210156421,7678404.02533168,40,K,1592.17,396.63,310426.226122779,7678397.55157839,310426.194190062,7678410.49908497,-0.141309538048299,Aug-11th-2024-09-50AM-Flight-Airdata,12.9475459576865,NA,NA,12.9475459576865,adult
20240811012A,2024-08-11 06:06:16,27024,82.5,139.7,-49.6,0,-20.9851963738591,55.1763576490782,310428.372297586,7678410.03300138,40,K,1544.9,468.335,310428.476679194,7678403.63530312,310428.267915978,7678416.43069964,-0.93472601665972,Aug-11th-2024-09-50AM-Flight-Airdata,12.7970994430793,NA,NA,12.7970994430793,adult
20240811003A,2024-08-11 05:54:02.800000,5052,82.3,352.6,-30.7,0,-20.9825983158828,55.1782865088335,310625.655920892,7678699.96117059,40,K,1448.115,319.885,310627.444379542,7678700.63269454,310623.867462242,7678699.28964664,-110.579970057321,Aug-11th-2024-09-50AM-Flight-Airdata,3.82074796556956,NA,3.82074796556956,NA,adult
20240811003A,2024-08-11 05:54:02.400000,5042,82.3,352.6,-30.7,0,-20.9826129368074,55.1783077697909,310627.885075353,7678698.36760174,40,K,1448.5,316.04,310629.586632602,7678699.03683355,310626.183518104,7678697.69836993,-111.469986798162,Aug-11th-2024-09-50AM-Flight-Airdata,3.65686657421794,NA,3.65686657421794,NA,adult
20240811004A,2024-08-11 05:54:00,4967,82.2,352.6,-25.8,0,-20.9826252880199,55.1785548711297,310653.594288783,7678697.29275074,40,K,1492.99,383.365,310655.108178799,7678697.75151254,310652.080398768,7678696.83398894,-106.858650078114,Aug-11th-2024-09-50AM-Flight-Airdata,3.16374801004025,NA,3.16374801004025,NA,adult
20240811004A,2024-08-11 05:54:01.200000,5006,82.3,352.6,-26.2,0,-20.9826906918755,55.1784551368213,310643.306361817,7678689.93350626,40,K,1491.575,401.535,310644.656650931,7678690.33420502,310641.956072703,7678689.5328075,-106.528273831431,Aug-11th-2024-09-50AM-Flight-Airdata,2.81697723567953,NA,2.81697723567953,NA,adult
20240811005A,2024-08-11 05:56:16.400000,9058,82.8,336.8,-42.1,0,-20.984205043682,55.1766152230204,310453.903162982,7678520.09299582,40,K,1419.975,838.435,310455.597696228,7678521.31437264,310452.208629736,7678518.871619,-125.783112148931,Aug-11th-2024-09-50AM-Flight-Airdata,4.17765688343917,NA,4.17765688343917,NA,adult
20240811005A,2024-08-11 05:56:50.800000,10090,82.9,329,-36.6,0,-20.9837364519911,55.1763645619746,310427.248109169,7678571.67573826,40,K,1378.4,568.365,310428.893717456,7678573.16956873,310425.602500881,7678570.18190778,-132.232160568751,Aug-11th-2024-09-50AM-Flight-Airdata,4.44502244004098,NA,4.44502244004098,NA,adult
20240811006A,2024-08-11 05:57:44,11684,82.9,305.5,-57.4,0,-20.9837272472729,55.1754174341431,310328.754595423,7678571.57167411,40,K,1474.375,518.825,310329.511899112,7678573.23694557,310327.997291735,7678569.90640265,-155.545720440611,Aug-11th-2024-09-50AM-Flight-Airdata,3.65876368204113,NA,3.65876368204113,NA,adult
20240811006A,2024-08-11 05:57:46.800000,11768,83.1,303.4,-54.8,0,-20.9837026720968,55.175320137483,310318.606693508,7678574.17709059,40,K,1494.41,592.39,310319.539353411,7678575.7715605,310317.674033606,7678572.58262067,-149.675176998532,Aug-11th-2024-09-50AM-Flight-Airdata,3.6944221792791,NA,3.6944221792791,NA,adult
20240811006A,2024-08-11 05:58:30,13063,83.7,287.7,-40.4,0,-20.9835254434736,55.1748351651484,310267.955569538,7678593.22351727,40,K,1406.845,711.36,310268.060661854,7678595.13081011,310267.850477221,7678591.31622442,-176.846177231288,Aug-11th-2024-09-50AM-Flight-Airdata,3.8203719131949,NA,3.8203719131949,NA,adult
20240811006A,2024-08-11 05:57:47.600000,11789,83.1,303.4,-54.6,0,-20.9837386157861,55.1753370546984,310320.411136862,7678570.21766869,40,K,1489.73,651.495,310321.346061433,7678571.58122387,310319.47621229,7678568.85411352,-145.563431297687,Aug-11th-2024-09-50AM-Flight-Airdata,3.30657930116613,NA,3.30657930116613,NA,adult
20240811007A,2024-08-11 05:56:28.200000,9411,82.8,336.8,-42.1,0,-20.9843147335112,55.1763379693859,310425.213034215,7678507.62005569,40,K,1009.31,849.725,310426.599285595,7678508.91770483,310423.826782835,7678506.32240654,-133.109210423079,Aug-11th-2024-09-50AM-Flight-Airdata,3.79767623276723,NA,3.79767623276723,NA,adult
20240811007A,2024-08-11 05:56:39.400000,9748,82.8,329,-42.1,0,-20.9841303939317,55.1762540377799,310416.253183309,7678527.92961197,40,K,1117.575,660.325,310417.627715793,7678528.95182923,310414.878650826,7678526.90739471,-126.637576475379,Aug-11th-2024-09-50AM-Flight-Airdata,3.42594084947041,NA,3.42594084947041,NA,adult
20240811007A,2024-08-11 05:56:56.400000,10257,82.8,329,-36.6,0,-20.9839100573251,55.1761225004328,310402.297851413,7678552.16811198,40,K,1094.36,588.195,310403.666486121,7678553.559198,310400.929216706,7678550.77702596,-135.466111359906,Aug-11th-2024-09-50AM-Flight-Airdata,3.90296363442188,NA,3.90296363442188,NA,adult
20240811007A,2024-08-11 05:56:53,10151,82.8,329,-36.6,0,-20.9839588047452,55.1761650076359,310406.779267186,7678546.82146579,40,K,1111.61,626.805,310407.999297323,7678548.37501612,310405.559237049,7678545.26791546,-141.85683538399,Aug-11th-2024-09-50AM-Flight-Airdata,3.9506921735421,NA,3.9506921735421,NA,adult
20240811007A,2024-08-11 05:55:56.800000,8470,82.6,321.9,-78.4,0,-20.9846067074255,55.1763993626715,310431.965227942,7678475.36709236,40,K,1013.62,496.73,310433.661900846,7678474.91959678,310430.268555038,7678475.81458793,-75.224773944723,Aug-11th-2024-09-50AM-Flight-Airdata,3.50938811359477,NA,3.50938811359477,NA,adult
20240811008A,2024-08-11 05:56:30.400000,9478,82.8,336.8,-42.1,0,-20.9841960599585,55.1765374353036,310445.803522168,7678520.99541205,40,K,1317.475,800.025,310447.258127901,7678522.00568597,310444.348916435,7678519.98513814,-124.781313655909,Aug-11th-2024-09-50AM-Flight-Airdata,3.54205094678126,NA,3.54205094678126,NA,adult
20240811008A,2024-08-11 05:57:42.600000,11643,82.8,307.6,-49.6,0,-20.9837935204809,55.1755152739084,310339.011627252,7678564.35031723,40,K,1441.705,683.595,310339.792749325,7678565.92759123,310338.230505178,7678562.77304324,-153.65375342577,Aug-11th-2024-09-50AM-Flight-Airdata,3.52019599133328,NA,3.52019599133328,NA,adult
20240811008A,2024-08-11 05:57:46.400000,11753,83.1,303.4,-56.6,0,-20.9837908282712,55.1753618240947,310323.052593457,7678564.46636853,40,K,1443.565,635.57,310323.890593756,7678565.87122622,310322.214593157,7678563.06151084,-149.183842762424,Aug-11th-2024-09-50AM-Flight-Airdata,3.27161711623214,NA,3.27161711623214,NA,adult
20240811008A,2024-08-11 05:57:51.800000,11918,83.1,306.1,-58.1,0,-20.9837993216333,55.1753405468471,310320.850923546,7678563.50079038,40,K,1405.555,616.905,310321.485025923,7678565.0530599,310320.21682117,7678561.94852086,-157.779976360754,Aug-11th-2024-09-50AM-Flight-Airdata,3.35358106014595,NA,3.35358106014595,NA,adult
20240811008A,2024-08-11 05:57:41.800000,11619,82.7,307.6,-46.7,0,-20.9837216300085,55.1755030727825,310337.65216711,7678572.29516636,40,K,1448.35,622.7,310338.543865707,7678573.81289676,310336.760468513,7678570.77743596,-149.564866554779,Aug-11th-2024-09-50AM-Flight-Airdata,3.5205862904146,NA,3.5205862904146,NA,adult
20240811009A,2024-08-11 05:56:30.400000,9477,82.8,336.8,-42.1,0,-20.9842341435159,55.1766160001755,310454.020700578,7678516.87214351,40,K,1413.765,870.015,310455.817253031,7678517.35735396,310452.224148124,7678516.38693306,-105.113774770238,Aug-11th-2024-09-50AM-Flight-Airdata,3.72184357359405,NA,3.72184357359405,NA,adult
20240811009A,2024-08-11 05:56:33.400000,9564,82.9,336.8,-42.1,0,-20.9841916479296,55.1766155851327,310453.923907073,7678521.5765291,40,K,1420.61,825.285,310455.606576602,7678522.29163459,310452.241237544,7678520.86142362,-113.024653799095,Aug-11th-2024-09-50AM-Flight-Airdata,3.65663922299071,NA,3.65663922299071,NA,adult
20240811009A,2024-08-11 05:56:38.600000,9720,82.8,329,-42.1,0,-20.9840614614878,55.1765733640823,310449.369473746,7678535.94000626,40,K,1512.74,739.015,310450.836010223,7678537.00035025,310447.902937269,7678534.87966227,-125.867907255409,Aug-11th-2024-09-50AM-Flight-Airdata,3.61942460699857,NA,3.61942460699857,NA,adult
20240811009A,2024-08-11 05:56:47.200000,9981,82.8,329,-42.1,0,-20.9839398250339,55.176531079236,310444.819192359,7678549.3567993,40,K,1493.8,630.65,310446.091644846,7678550.8942839,310443.546739871,7678547.81931469,-140.38817407558,Aug-11th-2024-09-50AM-Flight-Airdata,3.99148805746213,NA,3.99148805746213,NA,adult
20240811009A,2024-08-11 05:57:42.400000,11636,82.7,307.6,-47.8,0,-20.9839052820517,55.1755356017814,310341.266455231,7678552.0007966,40,K,1356.045,795.92,310341.731675876,7678553.89436904,310340.801234586,7678550.10722417,-166.196728495373,Aug-11th-2024-09-50AM-Flight-Airdata,3.89976759468194,NA,3.89976759468194,NA,adult
20240811009A,2024-08-11 05:57:44.600000,11701,83,303.8,-57.4,0,-20.9839394138184,55.1754262573932,310329.939998641,7678548.09221627,40,K,1308.245,705.29,310330.684449549,7678549.77185942,310329.195547733,7678546.41257311,-156.09613627802,Aug-11th-2024-09-50AM-Flight-Airdata,3.67445685457723,NA,3.67445685457723,NA,adult
20240811010A,2024-08-11 05:56:31.800000,9517,82.8,336.8,-42.1,0,-20.9840857522573,55.1767057657746,310463.167160736,7678533.40761324,40,K,1550.48,755.15,310464.687760448,7678534.80128767,310461.646561023,7678532.01393881,-132.506174795575,Aug-11th-2024-09-50AM-Flight-Airdata,4.1253130260548,NA,4.1253130260548,NA,adult
20240811010A,2024-08-11 05:55:52,8328,82.6,214.8,-78.4,0,-20.9845258258542,55.1762307016013,310414.325925778,7678484.12188834,40,K,1487.13,744.3,310412.648142084,7678483.06438423,310416.003709472,7678485.17939246,57.776841055458,Aug-11th-2024-09-50AM-Flight-Airdata,3.96649622571206,NA,3.96649622571206,NA,adult
20240811010A,2024-08-11 05:55:53.800000,8381,82.6,221,-78.4,0,-20.9844873794923,55.1762538859903,310416.688077068,7678488.40594781,40,K,1537.43,843.13,310414.758381356,7678487.48802946,310418.617772779,7678489.32386617,64.5604845205046,Aug-11th-2024-09-50AM-Flight-Airdata,4.27378036305962,NA,4.27378036305962,NA,adult
20240811010A,2024-08-11 05:58:00.400000,12175,83.1,307.1,-50.3,0,-20.9836015683227,55.1754474369036,310331.715539468,7678585.5217502,40,K,1685.52,714.335,310332.826515185,7678586.94900759,310330.60456375,7678584.09449281,-142.10284578038,Aug-11th-2024-09-50AM-Flight-Airdata,3.61736406860708,NA,3.61736406860708,NA,adult
20240811011A,2024-08-11 05:57:09,10631,82.9,324.3,-36.6,0,-20.9839599826123,55.1760695950602,310396.859817044,7678546.57792598,40,K,1102.37,605.005,310398.174967281,7678547.5699724,310395.544666808,7678545.58587957,-127.0280444501,Aug-11th-2024-09-50AM-Flight-Airdata,3.29470863052345,NA,3.29470863052345,NA,adult
20240811011A,2024-08-11 05:57:56,12040,83.2,307.1,-51,0,-20.983465874635,55.1750893020051,310294.305394824,7678600.12017689,40,K,1431.52,394.435,310295.449549367,7678601.48215527,310293.161240282,7678598.75819852,-139.967454226035,Aug-11th-2024-09-50AM-Flight-Airdata,3.55756923481831,NA,3.55756923481831,NA,adult
20240811011A,2024-08-11 05:58:04.800000,12305,83.1,307.1,-45.8,0,-20.9834129402775,55.1750622123598,310291.421752628,7678605.94864257,40,K,1441.38,459.54,310292.230476897,7678607.78668985,310290.613028358,7678604.11059529,-156.25093732726,Aug-11th-2024-09-50AM-Flight-Airdata,4.0161935990253,NA,4.0161935990253,NA,adult
20240811011A,2024-08-11 05:58:21.800000,12814,83.7,290.2,-49.5,0,-20.98318718881,55.1745429609455,310237.144849134,7678630.32650323,40,K,1489.73,274.59,310236.599279324,7678632.58666565,310237.690418943,7678628.06634081,166.429245509105,Aug-11th-2024-09-50AM-Flight-Airdata,4.65015293503807,NA,4.65015293503807,NA,adult
20240811013A,2024-08-11 06:06:27.600000,27372,82.6,135.2,-71.5,0,-20.985183152899,55.176497599274,310442.907416287,7678411.66267535,40,K,1551.36,420.24,310441.393945983,7678411.08512766,310444.420886591,7678412.24022304,69.1129003212707,Aug-11th-2024-09-50AM-Flight-Airdata,3.23984795709175,NA,3.23984795709175,NA,adult
20240811013A,2024-08-11 06:06:29,27419,82.6,130.2,-73.8,0,-20.9851906148123,55.1765631348143,310449.731121219,7678410.91422627,40,K,1549.89,390.04,310448.17189504,7678410.42712146,310451.290347399,7678411.40133107,72.651110015349,Aug-11th-2024-09-50AM-Flight-Airdata,3.26708271774572,NA,3.26708271774572,NA,adult
20240811013A,2024-08-11 06:06:33.600000,27552,82.6,120,-87.2,0,-20.9852453493311,55.1767023804283,310464.278752641,7678405.01938874,40,K,1730.54,348.395,310462.604064765,7678404.55398705,310465.953440517,7678405.48479044,74.4691995611648,Aug-11th-2024-09-50AM-Flight-Airdata,3.4763073616631,NA,3.4763073616631,NA,adult
20240811013A,2024-08-11 06:06:37.600000,27673,82.6,120,-90,0,-20.9852727767787,55.1766978987574,310463.847374405,7678401.97745979,40,K,1790.935,336.645,310462.172001745,7678401.37989356,310465.522747064,7678402.57502602,70.3698716928609,Aug-11th-2024-09-50AM-Flight-Airdata,3.55750415444369,NA,3.55750415444369,NA,adult
20240811013A,2024-08-11 06:05:55.400000,26412,82.5,139.5,-38.4,0,-20.9850289116747,55.1760435886639,310395.505326581,7678428.20111029,40,K,1633.1,643.55,310394.022497868,7678427.52807277,310396.988155294,7678428.8741478,65.587292713872,Aug-11th-2024-09-50AM-Flight-Airdata,3.25684539912139,NA,3.25684539912139,NA,adult
20240811012A,2024-08-11 06:06:02.400000,26619,82.5,147.5,-35.2,0,-20.9850837939907,55.176161934826,310407.880087545,7678422.26517305,40,K,1381.39,592.025,310406.52935581,7678422.41822616,310409.230819281,7678422.11211993,96.4646833765305,Aug-11th-2024-09-50AM-Flight-Airdata,2.71875079950153,NA,2.71875079950153,NA,adult
20240811012A,2024-08-11 06:06:05,26698,82.5,147.5,-35.2,0,-20.9851223053923,55.1761522012547,310406.916627993,7678417.9898597,40,K,1400.325,577.765,310405.579837539,7678418.28564841,310408.253418448,7678417.69407099,102.476687233023,Aug-11th-2024-09-50AM-Flight-Airdata,2.73824738108531,NA,2.73824738108531,NA,adult
20240811012A,2024-08-11 06:06:17,27059,82.6,139.7,-52.3,0,-20.9851866763621,55.1763371951452,310426.233286199,7678411.08240436,40,K,1563.725,432.6,310424.806942578,7678411.15587819,310427.659629819,7678411.00893053,92.9488145511203,Aug-11th-2024-09-50AM-Flight-Airdata,2.8564695187252,NA,2.8564695187252,NA,adult
20240811012A,2024-08-11 06:06:16.200000,27032,82.5,139.7,-51,0,-20.9851211646617,55.1763150663837,310423.849665363,7678418.30926433,40,K,1557.145,507.705,310422.406666103,7678418.38299519,310425.292664623,7678418.23553347,92.9250163549407,Aug-11th-2024-09-50AM-Flight-Airdata,2.88976338398627,NA,2.88976338398627,NA,adult
20240811012A,2024-08-11 06:06:22.400000,27220,82.8,135.2,-58,0,-20.9852792991228,55.1763618834531,310428.917268733,7678400.85699068,40,K,1609.275,333.58,310427.553256521,7678400.57527668,310430.281280944,7678401.13870467,78.3305887702078,Aug-11th-2024-09-50AM-Flight-Airdata,2.78560017708945,NA,2.78560017708945,NA,adult
20240814001A,2024-08-14 05:12:23.600000,638,77.8,313.9,-66.8,0,-21.0464945908017,55.1799032662189,310874.38188514,7671627.61784971,40,K,309.87,378.655,310874.259080746,7671629.59239529,310874.504689533,7671625.64330413,176.441144532013,Aug-14th-2024-09-09AM-Flight-Airdata,NA,3.9567214511611,NA,NA,adult
20240814001A,2024-08-14 05:12:23.600000,638,77.8,313.9,-66.8,0,-21.0465239329746,55.1799359364266,310877.814561343,7671624.40797955,40,K,296.84,427.885,310877.844072936,7671626.2491202,310877.785049751,7671622.56683889,-179.081686180174,Aug-14th-2024-09-09AM-Flight-Airdata,NA,3.68275432171934,NA,NA,adult
20240814001A,2024-08-14 05:12:46.600000,1323,77.9,34.9,-89.9,0,-21.0461298364492,55.1803269399516,310917.955983521,7671668.50412087,40,K,427.165,693.59,310917.733974129,7671666.89426242,310918.177992913,7671670.11397932,7.85191450777631,Aug-14th-2024-09-09AM-Flight-Airdata,NA,3.25018916778313,NA,NA,adult
20240814001A,2024-08-14 05:12:46.600000,1323,77.9,34.9,-89.9,0,-21.0461174833266,55.1802196769597,310906.791891212,7671669.74459756,40,K,277.3,765.275,310906.499559873,7671667.94850049,310907.084222551,7671671.54069464,9.24435515770739,Aug-14th-2024-09-09AM-Flight-Airdata,NA,3.63946276246667,NA,NA,adult
20240814001A,2024-08-14 05:12:51,1457,77.6,36.2,-90,0,-21.0461275617283,55.1803815388028,310923.627896689,7671668.82071098,40,K,497.39,652.33,310923.26299097,7671666.99439212,310923.992802409,7671670.64702985,11.2991311571676,Aug-14th-2024-09-09AM-Flight-Airdata,NA,3.72483383402231,NA,NA,adult
20240814002A,2024-08-14 05:12:23.800000,640,77.8,313.9,-66.8,0,-21.0463619097159,55.1799486434885,310878.930569533,7671642.36146853,40,K,502.46,317.84,310879.10409844,7671644.41221604,310878.757040625,7671640.31072103,-175.16330231652,Aug-14th-2024-09-09AM-Flight-Airdata,NA,4.1161523851075,NA,NA,adult
20240814002A,2024-08-14 05:12:42,1186,78,35,-90,0,-21.0460128797089,55.1801691838421,310901.411693411,7671681.26591247,40,K,118.01,677.67,310901.131767845,7671679.3873245,310901.691618977,7671683.14450044,8.47519856431225,Aug-14th-2024-09-09AM-Flight-Airdata,NA,3.79865822443358,NA,NA,adult
20240814002A,2024-08-14 05:12:58.600000,1686,77.8,46.6,-90,0,-21.0459727971212,55.1804052752691,310925.899484002,7671685.98362847,40,K,356.93,532.145,310925.624298659,7671684.11214056,310926.174669344,7671687.85511639,8.36488316219117,Aug-14th-2024-09-09AM-Flight-Airdata,NA,3.78322295868359,NA,NA,adult
20240814002A,2024-08-14 05:13:01.600000,1776,77.9,46.6,-90,0,-21.045984891567,55.180509608399,310936.758739402,7671684.76830365,40,K,487.25,431.5,310936.504201492,7671682.93380711,310937.013277313,7671686.60280019,7.89940186712747,Aug-14th-2024-09-09AM-Flight-Airdata,NA,3.70414205804199,NA,NA,adult
20240814002A,2024-08-14 05:13:11.400000,2070,78,54.1,-89.9,0,-21.045990250542,55.1806397963517,310950.296735074,7671684.32934408,40,K,600.2,341.01,310949.82947974,7671682.55135601,310950.763990408,7671686.10733215,14.7243854770109,Aug-14th-2024-09-09AM-Flight-Airdata,NA,3.67672088759227,NA,NA,adult
20240814003A,2024-08-14 05:13:40.600000,2945,77.6,311.8,-71.1,0,-21.0464260615813,55.1801658962308,310901.591962711,7671635.51655718,40,K,348.97,424.99,310902.546362846,7671636.83360615,310900.637562576,7671634.19950821,-144.071017744242,Aug-14th-2024-09-09AM-Flight-Airdata,NA,3.2529971507149,NA,NA,adult
20240814003A,2024-08-14 05:14:25.600000,4292,77.3,63.2,-84.6,0,-21.0461980228421,55.1808204783262,310969.338493986,7671661.540038,40,K,246.16,823.91,310968.550224047,7671659.92119293,310970.126763924,7671663.15888307,25.9630035253135,Aug-14th-2024-09-09AM-Flight-Airdata,NA,3.60112696662606,NA,NA,adult
20240814003A,2024-08-14 05:14:30.600000,4443,77.3,63.2,-84.6,0,-21.0462484576472,55.180903266531,310978.006851712,7671656.05429167,40,K,360.55,744.995,310977.136972986,7671654.5228951,310978.876730438,7671657.58568824,29.5978614169601,Aug-14th-2024-09-09AM-Flight-Airdata,NA,3.52242214820974,NA,NA,adult
20240814004A,2024-08-14 05:14:18.200000,4072,77.2,57.9,-84.6,0,-21.0461366609408,55.1807729933644,310964.325607808,7671668.27742799,40,K,271.505,815.95,310963.390017727,7671666.57686692,310965.261197889,7671669.97798906,28.8180747327422,Aug-14th-2024-09-09AM-Flight-Airdata,NA,3.88187415831643,NA,NA,adult
20240814004A,2024-08-14 05:14:19.400000,4108,77.3,57.9,-84.6,0,-21.0461665129215,55.1808260233535,310969.875029782,7671665.03523353,40,K,333.765,768.165,310969.122410461,7671663.46387834,310970.627649103,7671666.60658871,25.5926469281984,Aug-14th-2024-09-09AM-Flight-Airdata,NA,3.48459062828173,NA,NA,adult
20240814004A,2024-08-14 05:14:24.800000,4265,77.3,63.2,-84.6,0,-21.0461566393527,55.180878805873,310975.348563196,7671666.19095934,40,K,227.335,718.93,310974.173430858,7671664.7748246,310976.523695535,7671667.60709409,39.6864559350258,Aug-14th-2024-09-09AM-Flight-Airdata,NA,3.68042043283935,NA,NA,adult
20240814004A,2024-08-14 05:14:38.200000,4671,77.4,68.7,-84.6,0,-21.0461910681164,55.1809830722058,310986.229058774,7671662.50277968,40,K,327.975,652.325,310985.241044106,7671661.00067101,310987.217073442,7671664.00488834,33.3349908800397,Aug-14th-2024-09-09AM-Flight-Airdata,NA,3.59583283014025,NA,NA,adult
20240814005A,2024-08-14 05:20:31.400000,15256,72.7,132.3,-49.1,0,-21.0478270564588,55.1856790313143,311476.368026093,7671486.93406809,40,K,406.89,483.63,311475.757020129,7671485.18651955,311476.979032058,7671488.68161663,19.2714669246718,Aug-14th-2024-09-09AM-Flight-Airdata,NA,3.70256893099783,NA,NA,adult
20240814005A,2024-08-14 05:20:48,15754,72.5,131.5,-50.4,0,-21.0478343155203,55.1857643837837,311485.248243109,7671486.23130246,40,K,377.925,400.38,311484.472499047,7671484.32433307,311486.023987171,7671488.13827186,22.1362059096942,Aug-14th-2024-09-09AM-Flight-Airdata,NA,4.11743178435716,NA,NA,adult
20240814005A,2024-08-14 05:20:52.200000,15881,72.6,131.5,-31.2,0,-21.0478650950447,55.1859191664005,311501.374273379,7671483.00655473,40,K,345.355,678.39,311500.864228611,7671481.0664791,311501.884318147,7671484.94663035,14.7297119274775,Aug-14th-2024-09-09AM-Flight-Airdata,NA,4.01200154290511,NA,NA,adult
20240814006A,2024-08-14 05:20:22,14973,72.7,136.6,-44.2,0,-21.0478178360316,55.1852792379977,311434.804049663,7671487.48213049,40,K,668.26,805.81,311434.150647367,7671485.76124704,311435.457451959,7671489.20301395,20.791270547168,Aug-14th-2024-09-09AM-Flight-Airdata,NA,3.68150753080722,NA,NA,adult
20240814006A,2024-08-14 05:20:29.200000,15187,72.7,132.3,-49.1,0,-21.047839015493,55.1853227838886,311439.356657165,7671485.18874999,40,K,673.33,730.515,311438.71336982,7671483.67096101,311439.99994451,7671486.70653896,22.9687789413397,Aug-14th-2024-09-09AM-Flight-Airdata,NA,3.29696950669794,NA,NA,adult
20240814006A,2024-08-14 05:20:35.600000,15380,72.7,132.3,-37.7,0,-21.047910153728,55.1854652700736,311454.255515061,7671477.48119691,40,K,638.57,788.445,311453.144731196,7671476.21703991,311455.366298926,7671478.7453539,41.3049827979432,Aug-14th-2024-09-09AM-Flight-Airdata,NA,3.365670044902,NA,NA,adult
20240814006A,2024-08-14 05:20:48.600000,15773,72.6,131.5,-50,0,-21.0478961365011,55.1854691095075,311454.636907314,7671479.03765229,40,K,639.3,555.315,311453.392734092,7671477.5111765,311455.881080535,7671480.56412808,39.1821867840518,Aug-14th-2024-09-09AM-Flight-Airdata,NA,3.93857606357458,NA,NA,adult
20240814006A,2024-08-14 05:21:04.200000,16236,72.4,127.9,-41.1,0,-21.0479409882212,55.18573529023,311482.358772918,7671474.38665349,40,K,584.27,525.625,311481.433178281,7671472.44933256,311483.284367555,7671476.32397441,25.5370912902484,Aug-14th-2024-09-09AM-Flight-Airdata,NA,4.29415313915886,NA,NA,adult
20240814007A,2024-08-14 05:22:19,18480,70.8,240.3,-83,0,-21.0506897309315,55.1810700975088,311000.95500078,7671164.53627731,40,K,219.375,634.955,310999.433462565,7671163.48435102,311002.476538995,7671165.5882036,55.3416800746497,Aug-14th-2024-09-09AM-Flight-Airdata,NA,3.69952832584429,NA,NA,adult
20240814007A,2024-08-14 05:22:19,18480,70.8,240.3,-83,0,-21.0506199203178,55.1810257769057,310996.260468728,7671172.21281923,40,K,369.965,632.06,310994.912355147,7671171.29364058,310997.608582308,7671173.13199788,55.7128241917744,Aug-14th-2024-09-09AM-Flight-Airdata,NA,3.26331096718223,NA,NA,adult
20240814008A,2024-08-14 05:22:04.800000,18051,70.5,250.2,-76.9,0,-21.0506877224364,55.1806829162848,310960.711630316,7671164.29957282,40,K,498.115,311.32,310959.121943128,7671163.37039649,310962.301317503,7671165.22874916,59.693601991045,Aug-14th-2024-09-09AM-Flight-Airdata,NA,3.68264796848517,NA,NA,adult
20240814008A,2024-08-14 05:22:04.800000,18051,70.5,250.2,-76.9,0,-21.0507812714668,55.1807444175321,310967.221795094,7671154.01521138,40,K,306.25,347.52,310965.779378131,7671153.09886861,310968.664212057,7671154.93155416,57.5729045369811,Aug-14th-2024-09-09AM-Flight-Airdata,NA,3.417748249347,NA,NA,adult
20240814009A,2024-08-14 05:17:22.400000,9590,78.4,108.5,-50.4,0,-21.0462187180457,55.183006024865,311196.521322366,7671661.83821229,40,K,202.72,682.735,311197.695417075,7671663.42268942,311195.347227658,7671660.25373515,-143.461620756453,Aug-14th-2024-09-09AM-Flight-Airdata,NA,3.94414309180718,NA,NA,adult
20240814009A,2024-08-14 05:17:22.400000,9590,78.4,108.5,-50.4,0,-21.0462743404216,55.1831786529746,311214.53371846,7671655.88438284,40,K,285.255,514.04,311215.803092463,7671657.34897503,311213.264344457,7671654.41979065,-139.084259126998,Aug-14th-2024-09-09AM-Flight-Airdata,NA,3.87625625655462,NA,NA,adult
20240814010A,2024-08-14 05:17:39.800000,10111,78.7,99.1,-46.3,0,-21.0464837198081,55.1832028404758,311217.311733216,7671632.73159728,40,K,703.73,499.56,311219.083177347,7671631.45066,311215.540289085,7671634.01253456,-54.1291802060143,Aug-14th-2024-09-09AM-Flight-Airdata,NA,4.37210000844303,NA,NA,adult
20240814011A,2024-08-14 05:18:33.600000,11723,75.5,80.4,-47.4,0,-21.0463163966336,55.1835375522103,311251.889219707,7671651.65302097,40,K,317.835,836.945,311251.970310527,7671650.00164877,311251.808128887,7671653.30439317,-2.81125760880338,Aug-14th-2024-09-09AM-Flight-Airdata,NA,3.3067239826365,NA,NA,adult
20240814011A,2024-08-14 05:18:44.600000,12052,75.3,104.1,-63.9,0,-21.0463639440035,55.1838567168642,311285.121776096,7671646.7665964,40,K,358.38,841.29,311285.900293703,7671645.07689013,311284.343258489,7671648.45630267,-24.7374799909195,Aug-14th-2024-09-09AM-Flight-Airdata,NA,3.72085846932595,NA,NA,adult
20240814011A,2024-08-14 05:18:49.800000,12208,75.3,130.2,-63.9,0,-21.0463687770088,55.1839633525277,311296.211120054,7671646.35771487,40,K,813.06,873.15,311296.739087594,7671644.5327413,311295.683152514,7671648.18268844,-16.1352342227988,Aug-14th-2024-09-09AM-Flight-Airdata,NA,3.79962010886261,NA,NA,adult
20240814001A,2024-08-14 05:12:24.600000,666,77.8,314.5,-66.8,0,-21.0460920515779,55.1806449504904,310950.961005934,7671673.06454945,40,K,1509.01,713.325,310951.309524285,7671675.06823253,310950.612487583,7671671.06086637,-170.132757313983,Aug-14th-2024-09-09AM-Flight-Airdata,4.06753533797761,NA,4.06753533797761,NA,adult
20240814001A,2024-08-14 05:12:24.600000,666,77.8,314.5,-66.8,0,-21.0461089388103,55.1806988494009,310956.58437122,7671671.25878191,40,K,1564.96,788.635,310961.750903608,7671669.63038002,310951.417838831,7671672.88718381,-72.5060474488028,Aug-14th-2024-09-09AM-Flight-Airdata,10.834158880022,NA,NA,10.834158880022,adult
