name	time	frame	height	yaw	pitch	roll	length	lat	lon	east	north	zone.number	zone.letter	image_x	image_y	start_east	start_north	end_east	end_north	heading	project	sensor	surface_event	printID
20240720002A	2024-07-20 05:03:49.500000	6400	90.1	140.1	-76.9	0	NA	-21.0840972169493	55.2093661593942	313983.392276392	7667499.14582929	40	K	1305.67	435.71	NA	NA	NA	NA	NA	Jul-20th-2024-08-53AM-Flight-Airdata	RGB	1	1
20240720002A	2024-07-20 05:03:59.700000	6704	90.1	136.2	-89.9	0	NA	-21.0841674139793	55.2094602408984	313993.255530603	7667491.48396351	40	K	1320.1	252.48	NA	NA	NA	NA	NA	Jul-20th-2024-08-53AM-Flight-Airdata	RGB	1	2
20240720002A	2024-07-20 05:04:07.100000	6927	90.2	136.2	-90	0	NA	-21.0841933743616	55.2095230298352	313999.812143588	7667488.68315127	40	K	1279.71	360.68	NA	NA	NA	NA	NA	Jul-20th-2024-08-53AM-Flight-Airdata	RGB	1	3
20240720002A	2024-07-20 05:04:19.100000	7284	90.2	106.1	-89.9	0	NA	-21.0842920588296	55.2098026288635	314028.987641769	7667478.08406876	40	K	1347.51	174.57	NA	NA	NA	NA	NA	Jul-20th-2024-08-53AM-Flight-Airdata	RGB	1	4
20240720002A	2024-07-20 05:04:39.900000	7911	90.1	111.3	-89.9	0	NA	-21.0842916296814	55.21004886331	314054.572883619	7667478.41924241	40	K	1465.82	442.92	NA	NA	NA	NA	NA	Jul-20th-2024-08-53AM-Flight-Airdata	RGB	1	5
20240720003J	2024-07-20 05:03:36.900000	6018	90.1	143.4	-54.1	0	NA	-21.0840800660165	55.2091934242396	313965.422293401	7667500.84281338	40	K	1379.73	512.72	NA	NA	NA	NA	NA	Jul-20th-2024-08-53AM-Flight-Airdata	RGB	1	1
20240720003J	2024-07-20 05:03:43.900000	6228	90.2	143.4	-57.7	0	NA	-21.0841139982752	55.2092914868244	313975.654068619	7667497.20063459	40	K	1342.29	581.85	NA	NA	NA	NA	NA	Jul-20th-2024-08-53AM-Flight-Airdata	RGB	1	2
20240720003J	2024-07-20 05:03:58.700000	6676	90.1	136.2	-90	0	NA	-21.0841121292776	55.2094313110607	313990.180645736	7667497.57095779	40	K	1294.76	293.81	NA	NA	NA	NA	NA	Jul-20th-2024-08-53AM-Flight-Airdata	RGB	1	3
20240720003J	2024-07-20 05:03:52.700000	6495	90.2	136.2	-76.9	0	NA	-21.0841098734309	55.2093998237799	313986.906045916	7667497.78391707	40	K	1310.6	462.31	NA	NA	NA	NA	NA	Jul-20th-2024-08-53AM-Flight-Airdata	RGB	2	1
20240720003J	2024-07-20 05:04:15.300000	7173	90.1	106.1	-90	0	NA	-21.0842555632933	55.2097089278995	314019.205909792	7667482.01516598	40	K	1336.53	302.45	NA	NA	NA	NA	NA	Jul-20th-2024-08-53AM-Flight-Airdata	RGB	2	2
20240720003J	2024-07-20 05:04:33.100000	7707	90.1	106.9	-90	0	NA	-21.0842651006598	55.2099456430895	314043.814435641	7667481.23579945	40	K	1500.71	198.75	NA	NA	NA	NA	NA	Jul-20th-2024-08-53AM-Flight-Airdata	RGB	2	3
20240722006A	2024-07-22 07:45:00.300000	23535	108	81.5	-73.2	0	NA	-20.9615734848582	55.1642299050305	309137.340053397	7681011.01307076	40	K	1214.78	441.48	NA	NA	NA	NA	NA	Jul-22nd-2024-11-31AM-Flight-Airdata	RGB	1	1
20240722006A	2024-07-22 07:45:05.100000	23679	108.2	81.5	-85.3	0	NA	-20.9612344325727	55.1640324421255	309116.374364911	7681048.31570993	40	K	1183.04	470.33	NA	NA	NA	NA	NA	Jul-22nd-2024-11-31AM-Flight-Airdata	RGB	1	2
20240722006A	2024-07-22 07:45:14.700000	23965	108.2	45.9	-90	0	NA	-20.960874923071	55.1638527415545	309097.229823523	7681087.90442969	40	K	1301.35	627.59	NA	NA	NA	NA	NA	Jul-22nd-2024-11-31AM-Flight-Airdata	RGB	1	3
20240722007A	2024-07-22 07:44:59.500000	23510	107.9	81.5	-73.2	0	NA	-20.9617131996077	55.1642967403334	309144.467973116	7680995.6242739	40	K	1307.12	379.44	NA	NA	NA	NA	NA	Jul-22nd-2024-11-31AM-Flight-Airdata	RGB	1	1
20240722007A	2024-07-22 07:45:04.300000	23657	108.1	81.5	-85.3	0	NA	-20.9613196583086	55.1640668592576	309120.061795289	7681038.92100185	40	K	1276.82	442.92	NA	NA	NA	NA	NA	Jul-22nd-2024-11-31AM-Flight-Airdata	RGB	1	2
20240722007A	2024-07-22 07:45:14.900000	23972	108.2	45.9	-90	0	NA	-20.9609329396584	55.1638664708137	309098.731272392	7681081.49750776	40	K	1389.35	669.43	NA	NA	NA	NA	NA	Jul-22nd-2024-11-31AM-Flight-Airdata	RGB	1	3
20240725001A	2024-07-25 11:39:12.500000	5340	91.4	110.1	-60.4	0	NA	-21.2916542622225	55.3594592621317	329816.718311741	7644688.76267956	40	K	1408.11	522.27	NA	NA	NA	NA	NA	Jul-25th-2024-03-34PM-Flight-Airdata	RGB	1	1
20240725001A	2024-07-25 11:39:15.100000	5420	91.4	110.2	-60.4	0	NA	-21.2916709402658	55.3594815754389	329819.052678432	7644686.94032756	40	K	1410.99	496.3	NA	NA	NA	NA	NA	Jul-25th-2024-03-34PM-Flight-Airdata	RGB	1	2
20240725001A	2024-07-25 11:39:21.100000	5601	91.6	110.2	-58.7	0	NA	-21.2916763140969	55.3595188687918	329822.928315505	7644686.3856307	40	K	1392.24	496.3	NA	NA	NA	NA	NA	Jul-25th-2024-03-34PM-Flight-Airdata	RGB	1	3
20240726001A	2024-07-26 04:57:26.100000	16469	90.1	197.6	-89.9	0	NA	-21.0607339942671	55.1963807920472	312604.814460616	7670070.56659311	40	K	1211.9	598.73	NA	NA	NA	NA	NA	Jul-26th-2024-08-45AM-Flight-Airdata	RGB	1	1
20240726001A	2024-07-26 04:57:37.900000	16825	90.1	197.6	-89.9	0	NA	-21.0607814627605	55.1964615877047	312613.270630578	7670065.40615851	40	K	1139.76	656.44	NA	NA	NA	NA	NA	Jul-26th-2024-08-45AM-Flight-Airdata	RGB	1	2
20240726001A	2024-07-26 04:57:53.100000	17281	90.1	171.1	-89.9	0	NA	-21.0609622028907	55.1965919700852	312627.047050581	7670045.54892877	40	K	1004.14	624.7	NA	NA	NA	NA	NA	Jul-26th-2024-08-45AM-Flight-Airdata	RGB	1	3
20240726001A	2024-07-26 04:58:08.300000	17735	90	153	-89.9	0	NA	-21.0610557551237	55.1967033036954	312638.734582511	7670035.32225448	40	K	1025.78	451.58	NA	NA	NA	NA	NA	Jul-26th-2024-08-45AM-Flight-Airdata	RGB	1	4
20240726001A	2024-07-26 04:58:29.100000	18361	89.9	153	-90	0	NA	-21.0610476653797	55.1968590040238	312654.905594227	7670036.40097482	40	K	1009.91	572.77	NA	NA	NA	NA	NA	Jul-26th-2024-08-45AM-Flight-Airdata	RGB	1	5
20240726001A	2024-07-26 04:58:51.100000	19019	89.9	153	-90	0	NA	-21.0610479414847	55.1970104218915	312670.642029902	7670036.54842415	40	K	1102.25	574.21	NA	NA	NA	NA	NA	Jul-26th-2024-08-45AM-Flight-Airdata	RGB	1	6
20240726001J	2024-07-26 04:50:31.500000	4046	89.8	236.4	-62.9	0	NA	-21.0569548347472	55.1963095257392	312592.673598729	7670488.8904334	40	K	1278.26	517.94	NA	NA	NA	NA	NA	Jul-26th-2024-08-45AM-Flight-Airdata	RGB	1	1
20240726001J	2024-07-26 04:50:36.700000	4203	89.9	236.4	-66.1	0	NA	-21.0570330404729	55.1963090131424	312592.718292936	7670480.23132668	40	K	1246.52	473.22	NA	NA	NA	NA	NA	Jul-26th-2024-08-45AM-Flight-Airdata	RGB	1	2
20240726001J	2024-07-26 04:50:41.900000	4357	89.7	225	-66.1	0	NA	-21.0571701882592	55.1962505015146	312586.809121256	7670464.97827931	40	K	1312.89	463.12	NA	NA	NA	NA	NA	Jul-26th-2024-08-45AM-Flight-Airdata	RGB	1	3
20240726001J	2024-07-26 04:50:47.100000	4515	89.2	211.1	-66.1	0	NA	-21.0573742044557	55.1962840869374	312590.555150312	7670442.43023151	40	K	1373.48	539.58	NA	NA	NA	NA	NA	Jul-26th-2024-08-45AM-Flight-Airdata	RGB	1	4
20240726001J	2024-07-26 04:50:55.100000	4754	89.9	210.7	-70.7	0	NA	-21.0574336558007	55.1962790809594	312590.109368049	7670435.84222143	40	K	1367.71	442.92	NA	NA	NA	NA	NA	Jul-26th-2024-08-45AM-Flight-Airdata	RGB	1	5
20240726001J	2024-07-26 04:51:00.100000	4903	90.1	210.7	-70.7	0	NA	-21.0575178622855	55.196321096357	312594.581407598	7670426.56875323	40	K	1366.27	512.17	NA	NA	NA	NA	NA	Jul-26th-2024-08-45AM-Flight-Airdata	RGB	1	6
20240726001J	2024-07-26 04:51:06.300000	5089	90	210.7	-85.7	0	NA	-21.0576251618963	55.1964225544637	312605.260092644	7670414.80843832	40	K	1341.74	378	NA	NA	NA	NA	NA	Jul-26th-2024-08-45AM-Flight-Airdata	RGB	1	7
20240726001J	2024-07-26 04:55:19.500000	12680	90	197.6	-89.9	0	NA	-21.0596585909918	55.1962795147356	312592.941837999	7670189.51021027	40	K	1454.52	621.29	NA	NA	NA	NA	NA	Jul-26th-2024-08-45AM-Flight-Airdata	RGB	2	1
20240726001J	2024-07-26 04:55:29.500000	12979	90.1	197.6	-89.9	0	NA	-21.0597255214499	55.196256026978	312590.584706922	7670182.07241636	40	K	1495.16	587.9	NA	NA	NA	NA	NA	Jul-26th-2024-08-45AM-Flight-Airdata	RGB	2	2
20240726001J	2024-07-26 04:55:37.500000	13214	90	197.6	-90	0	NA	-21.0598196376613	55.1962611079349	312591.230665917	7670171.65836393	40	K	1508.23	566.13	NA	NA	NA	NA	NA	Jul-26th-2024-08-45AM-Flight-Airdata	RGB	2	3
20240726001J	2024-07-26 04:55:44.300000	13418	90	197.6	-89.9	0	NA	-21.0598855588664	55.1963448770093	312600.019021833	7670164.45844687	40	K	1512.58	737.42	NA	NA	NA	NA	NA	Jul-26th-2024-08-45AM-Flight-Airdata	RGB	2	4
20240726001J	2024-07-26 04:57:23.100000	16382	90.1	197.6	-90	0	NA	-21.0607579813133	55.1963409814947	312600.707195288	7670067.86406084	40	K	1254.19	550.16	NA	NA	NA	NA	NA	Jul-26th-2024-08-45AM-Flight-Airdata	RGB	3	1
20240726001J	2024-07-26 04:57:31.700000	16640	90.1	197.6	-89.9	0	NA	-21.0607971595625	55.1963879770984	312605.640304636	7670063.58172931	40	K	1190.32	544.35	NA	NA	NA	NA	NA	Jul-26th-2024-08-45AM-Flight-Airdata	RGB	3	2
20240726001J	2024-07-26 04:57:38.300000	16836	90.1	197.6	-90	0	NA	-21.060819765138	55.196425933042	312609.613201294	7670061.12360103	40	K	1174.03	595.04	NA	NA	NA	NA	NA	Jul-26th-2024-08-45AM-Flight-Airdata	RGB	3	3
20240726001J	2024-07-26 04:57:49.700000	17178	90.1	171.1	-89.9	0	NA	-21.0610092620598	55.1965075224579	312618.329785804	7670040.23949309	40	K	1089.93	507.05	NA	NA	NA	NA	NA	Jul-26th-2024-08-45AM-Flight-Airdata	RGB	3	4
20240726001J	2024-07-26 04:58:02.300000	17558	89.9	153	-89.9	0	NA	-21.0611209157502	55.1966560492298	312633.905290968	7670028.05246564	40	K	1011.11	440.85	NA	NA	NA	NA	NA	Jul-26th-2024-08-45AM-Flight-Airdata	RGB	3	5
20240726001J	2024-07-26 04:58:17.700000	18015	89.9	153	-89.9	0	NA	-21.0610910872286	55.1967309189399	312641.648752581	7670031.44294936	40	K	1087.63	479.95	NA	NA	NA	NA	NA	Jul-26th-2024-08-45AM-Flight-Airdata	RGB	3	6
20240726001J	2024-07-26 04:58:38.100000	18627	89.9	153	-89.9	0	NA	-21.0610897742441	55.1968754354391	312656.665970182	7670031.75823282	40	K	1089.36	570	NA	NA	NA	NA	NA	Jul-26th-2024-08-45AM-Flight-Airdata	RGB	3	7
20240726002J	2024-07-26 06:15:07	23886	90.3	148.5	-89.9	0	NA	-21.0873376001295	55.2037373537025	313402.559408504	7667133.80042633	40	K	1366.27	393.87	NA	NA	NA	NA	NA	Jul-26th-2024-10-01AM-Flight-Airdata	RGB	1	1
20240726002J	2024-07-26 06:15:13.600000	24084	90.3	148.5	-90	0	NA	-21.0873568379584	55.2037723375389	313406.21848283	7667131.71153573	40	K	1351.84	431.38	NA	NA	NA	NA	NA	Jul-26th-2024-10-01AM-Flight-Airdata	RGB	1	2
20240726002J	2024-07-26 06:15:21.400000	24319	90.2	148.5	-90	0	NA	-21.0873821958279	55.2038211241359	313411.319395066	7667128.96124934	40	K	1322.99	442.92	NA	NA	NA	NA	NA	Jul-26th-2024-10-01AM-Flight-Airdata	RGB	1	3
20240726002J	2024-07-26 06:15:28.200000	24523	90.2	148.5	-89.9	0	NA	-21.0874236666627	55.2038581060879	313415.213856465	7667124.41318407	40	K	1310	393.87	NA	NA	NA	NA	NA	Jul-26th-2024-10-01AM-Flight-Airdata	RGB	1	4
20240726002J	2024-07-26 06:15:36	24756	90.1	148.5	-89.9	0	NA	-21.0874398980217	55.2039233322277	313422.011535958	7667122.69260413	40	K	1253.74	440.03	NA	NA	NA	NA	NA	Jul-26th-2024-10-01AM-Flight-Airdata	RGB	1	5
20240726004A	2024-07-26 06:15:05.600000	23845	90.3	148.5	-89.9	0	NA	-21.0873226558569	55.2037467159964	313403.513541239	7667135.46595008	40	K	1343.19	405.41	NA	NA	NA	NA	NA	Jul-26th-2024-10-01AM-Flight-Airdata	RGB	1	1
20240726004A	2024-07-26 06:15:14.400000	24110	90.2	148.5	-90	0	NA	-21.0873338421395	55.2037921937074	313408.252937744	7667134.28078483	40	K	1311.45	444.36	NA	NA	NA	NA	NA	Jul-26th-2024-10-01AM-Flight-Airdata	RGB	1	2
20240726004A	2024-07-26 06:15:25.200000	24432	90.2	148.5	-89.9	0	NA	-21.0873663420566	55.2038666173605	313416.026623803	7667130.76982532	40	K	1253.74	434.26	NA	NA	NA	NA	NA	Jul-26th-2024-10-01AM-Flight-Airdata	RGB	1	3
20240726004A	2024-07-26 06:15:33.800000	24687	90.1	148.5	-89.9	0	NA	-21.087378448353	55.2039328884391	313422.927728806	7667129.50717394	40	K	1194.58	506.4	NA	NA	NA	NA	NA	Jul-26th-2024-10-01AM-Flight-Airdata	RGB	1	4
20240726005A	2024-07-26 06:52:32.800000	16568	90	29.3	-84.3	0	NA	-21.0685451465819	55.1957561213158	312549.686774742	7669205.02350351	40	K	1504.15	582.53	NA	NA	NA	NA	NA	Jul-26th-2024-10-38AM-Flight-Airdata	RGB	1	1
20240726005A	2024-07-26 06:53:10.400000	17696	90.3	34.3	-84.3	0	NA	-21.0684331042431	55.1960896034151	312584.201705934	7669217.82062613	40	K	1469.37	578.19	NA	NA	NA	NA	NA	Jul-26th-2024-10-38AM-Flight-Airdata	RGB	1	2
20240726005A	2024-07-26 06:58:11.800000	26729	93.7	144.4	-90	0	NA	-21.067933132358	55.1949049615412	312460.466792783	7669271.78057341	40	K	1440.39	717.3	NA	NA	NA	NA	NA	Jul-26th-2024-10-38AM-Flight-Airdata	RGB	2	1
20240726005A	2024-07-26 06:58:21	27004	93.9	144.4	-89.9	0	NA	-21.067960770045	55.1947506328208	312444.463586767	7669268.53897557	40	K	1494.67	603.06	NA	NA	NA	NA	NA	Jul-26th-2024-10-38AM-Flight-Airdata	RGB	2	2
20240726005A	2024-07-26 06:58:31.200000	27308	93.6	144.4	-89.9	0	NA	-21.067940742135	55.1946948308903	312438.639515017	7669270.69065562	40	K	1471.59	663.66	NA	NA	NA	NA	NA	Jul-26th-2024-10-38AM-Flight-Airdata	RGB	2	3
20240726005A	2024-07-26 06:58:35.800000	27447	93.7	144.4	-90	0	NA	-21.0679201282401	55.1946693486832	312435.965539331	7669272.94291161	40	K	1481.69	699.73	NA	NA	NA	NA	NA	Jul-26th-2024-10-38AM-Flight-Airdata	RGB	2	4
20240726005A	2024-07-26 06:58:50.800000	27895	93.2	210.1	-68.5	0	NA	-21.0675113133019	55.1944977906183	312417.624302431	7669318.00270459	40	K	1497.56	854.1	NA	NA	NA	NA	NA	Jul-26th-2024-10-38AM-Flight-Airdata	RGB	2	5
20240726006A	2024-07-26 07:22:33.800000	10991	89.7	127.3	-90	0	NA	-21.0619251714754	55.1934772349598	312304.556451114	7669935.268449	40	K	1442.73	616.05	NA	NA	NA	NA	NA	Jul-26th-2024-11-16AM-Flight-Airdata	RGB	1	1
20240726006A	2024-07-26 07:22:40	11180	89.7	127.3	-90	0	NA	-21.0619711047655	55.1935335887953	312310.470634491	7669930.24934377	40	K	1444.18	523.71	NA	NA	NA	NA	NA	Jul-26th-2024-11-16AM-Flight-Airdata	RGB	1	2
20240726006A	2024-07-26 07:22:52.400000	11551	89.7	158.3	-90	0	NA	-21.061922608822	55.1934584747824	312302.603593841	7669935.53007317	40	K	1289.8	399.64	NA	NA	NA	NA	NA	Jul-26th-2024-11-16AM-Flight-Airdata	RGB	1	3
20240726006A	2024-07-26 07:23:22.800000	12464	89.5	136.2	-89.9	0	NA	-21.0625306736906	55.1936869651229	312327.112332991	7669868.47753637	40	K	1302.79	191.88	NA	NA	NA	NA	NA	Jul-26th-2024-11-16AM-Flight-Airdata	RGB	3	1
20240726006A	2024-07-26 07:23:36.800000	12883	89.4	142.2	-89.9	0	NA	-21.0627633130457	55.1937239928929	312331.252325366	7669842.76456834	40	K	1327.32	216.41	NA	NA	NA	NA	NA	Jul-26th-2024-11-16AM-Flight-Airdata	RGB	3	2
20240726006A	2024-07-26 07:23:49.800000	13272	89.4	142	-90	0	NA	-21.0629921228511	55.1937043518068	312329.498266002	7669817.40883915	40	K	1366.27	330.39	NA	NA	NA	NA	NA	Jul-26th-2024-11-16AM-Flight-Airdata	RGB	3	3
20240726007A	2024-07-26 07:23:11.600000	12126	89.5	133	-89.9	0	NA	-21.0622869558879	55.193506394605	312308.040864509	7669895.24796764	40	K	1389.35	356.36	NA	NA	NA	NA	NA	Jul-26th-2024-11-16AM-Flight-Airdata	RGB	2	1
20240726007A	2024-07-26 07:23:34.200000	12802	89.4	133.2	-90	0	NA	-21.0626569017891	55.1935112183217	312309.006427095	7669854.29522172	40	K	1478.8	564.11	NA	NA	NA	NA	NA	Jul-26th-2024-11-16AM-Flight-Airdata	RGB	2	2
20240726007A	2024-07-26 07:23:43.200000	13072	89.4	142.2	-89.9	0	NA	-21.0627332883734	55.1935060698902	312308.567243952	7669845.83204336	40	K	1490.34	513.61	NA	NA	NA	NA	NA	Jul-26th-2024-11-16AM-Flight-Airdata	RGB	3	1
20240726007A	2024-07-26 07:23:54.200000	13403	89.3	142	-90	0	NA	-21.0629716235374	55.1934153544054	312299.43885585	7669819.33798421	40	K	1546.61	861.31	NA	NA	NA	NA	NA	Jul-26th-2024-11-16AM-Flight-Airdata	RGB	3	2
20240726008A	2024-07-26 07:23:01.600000	11829	89.7	158.3	-90	0	NA	-21.0620249431811	55.1932426578192	312280.303371608	7669923.94591634	40	K	1499	597.29	NA	NA	NA	NA	NA	Jul-26th-2024-11-16AM-Flight-Airdata	RGB	1	1
20240726008A	2024-07-26 07:23:17.800000	12314	89.6	133	-89.9	0	NA	-21.0623110369261	55.1934088533291	312297.93418664	7669892.46694028	40	K	1468.7	494.86	NA	NA	NA	NA	NA	Jul-26th-2024-11-16AM-Flight-Airdata	RGB	1	2
20240726008A	2024-07-26 07:23:31	12707	89.4	123.1	-89.9	0	NA	-21.0625771689679	55.1934457104021	312302.098520847	7669863.04564422	40	K	1477.36	676.64	NA	NA	NA	NA	NA	Jul-26th-2024-11-16AM-Flight-Airdata	RGB	1	3
20240726008A	2024-07-26 07:23:42	13039	89.4	142.2	-90	0	NA	-21.062661863318	55.1933835212885	312295.741873949	7669853.59547748	40	K	1561.04	682.41	NA	NA	NA	NA	NA	Jul-26th-2024-11-16AM-Flight-Airdata	RGB	1	4
20240726008A	2024-07-26 07:24:14.200000	14001	88.6	102.6	-90	0	NA	-21.0632638316195	55.1936320974928	312322.330296632	7669787.24159139	40	K	1546.61	768.98	NA	NA	NA	NA	NA	Jul-26th-2024-11-16AM-Flight-Airdata	RGB	1	5
20240726009A	2024-07-26 07:30:17.200000	24880	89.7	197.5	-47.1	0	NA	-21.0648159080898	55.1913997291418	312092.284802589	7669612.77261722	40	K	1432.63	457.35	NA	NA	NA	NA	NA	Jul-26th-2024-11-16AM-Flight-Airdata	RGB	1	1
20240726009A	2024-07-26 07:30:36.600000	25464	89.7	204.3	-90	0	NA	-21.0645590495196	55.1910740083033	312058.112253672	7669640.82644761	40	K	1555.27	637.69	NA	NA	NA	NA	NA	Jul-26th-2024-11-16AM-Flight-Airdata	RGB	1	2
20240729001A	2024-07-29 11:59:10.600000	4274	90.2	316	-89.9	0	NA	-21.0099328513374	55.2098555769168	313942.082680716	7675710.73052637	40	K	1532.9	504.96	NA	NA	NA	NA	NA	Jul-29th-2024-03-56PM-Flight-Airdata	RGB	1	1
20240729001A	2024-07-29 11:59:30.800000	4880	90.2	316	-90	0	NA	-21.0095445721734	55.2098576081005	313941.812145603	7675753.72055343	40	K	1453.55	343.85	NA	NA	NA	NA	NA	Jul-29th-2024-03-56PM-Flight-Airdata	RGB	1	2
20240729001A	2024-07-29 11:59:48.400000	5408	90.1	323.9	-89.9	0	NA	-21.0091539988853	55.2098774393826	313943.389279925	7675796.98530376	40	K	1516.07	192.36	NA	NA	NA	NA	NA	Jul-29th-2024-03-56PM-Flight-Airdata	RGB	1	3
20240729001A	2024-07-29 12:00:06	5934	90.1	323.9	-90	0	NA	-21.0087389016513	55.2099325127865	313948.599807461	7675843.00622896	40	K	1421.09	301.77	NA	NA	NA	NA	NA	Jul-29th-2024-03-56PM-Flight-Airdata	RGB	1	4
20240729001A	2024-07-29 12:00:22.400000	6427	90.1	323.9	-89.9	0	NA	-21.0083300547707	55.2099118422899	313945.943718212	7675888.24692479	40	K	1481.21	245.26	NA	NA	NA	NA	NA	Jul-29th-2024-03-56PM-Flight-Airdata	RGB	1	5
20240729001A	2024-07-29 12:00:43.800000	7067	90.1	27.1	-90	0	NA	-21.0082130617359	55.2099878455781	313953.699975048	7675901.28813347	40	K	1165.01	333.03	NA	NA	NA	NA	NA	Jul-29th-2024-03-56PM-Flight-Airdata	RGB	1	6
20240729001A	2024-07-29 12:00:57	7461	90.1	27.1	-89.9	0	NA	-21.0079060221869	55.2100444379109	313959.202532227	7675935.3473971	40	K	1255.18	378.72	NA	NA	NA	NA	NA	Jul-29th-2024-03-56PM-Flight-Airdata	RGB	1	7
20240729001J	2024-07-29 11:58:57.200000	3875	90.3	316	-89.9	0	NA	-21.0103625013561	55.2098028390721	313937.133107767	7675663.10112236	40	K	1398.65	391.74	NA	NA	NA	NA	NA	Jul-29th-2024-03-56PM-Flight-Airdata	RGB	1	1
20240729001J	2024-07-29 11:59:04.600000	4096	90.2	316	-90	0	NA	-21.0101468575421	55.2098562816226	313942.421440465	7675687.03801708	40	K	1459.52	554.51	NA	NA	NA	NA	NA	Jul-29th-2024-03-56PM-Flight-Airdata	RGB	1	2
20240729001J	2024-07-29 11:59:09.600000	4241	90.2	316	-89.9	0	NA	-21.0099916306039	55.2098330638561	313939.815148421	7675704.19665426	40	K	1487.19	541.63	NA	NA	NA	NA	NA	Jul-29th-2024-03-56PM-Flight-Airdata	RGB	1	3
20240729001J	2024-07-29 11:59:39.600000	5144	90.1	321.9	-90	0	NA	-21.0093797249459	55.2098551074159	313941.34766788	7675771.96841754	40	K	1488.16	278.31	NA	NA	NA	NA	NA	Jul-29th-2024-03-56PM-Flight-Airdata	RGB	1	4
20240729001J	2024-07-29 11:59:48.200000	5402	90.1	323.9	-90	0	NA	-21.009212889524	55.2098852794113	313944.277389028	7675790.47446097	40	K	1486.61	267.87	NA	NA	NA	NA	NA	Jul-29th-2024-03-56PM-Flight-Airdata	RGB	1	5
20240729001J	2024-07-29 12:00:06	5932	90.1	323.9	-90	0	NA	-21.0087940550895	55.2099565769964	313951.169956013	7675836.9280421	40	K	1401.96	380.35	NA	NA	NA	NA	NA	Jul-29th-2024-03-56PM-Flight-Airdata	RGB	1	6
20240729001J	2024-07-29 12:00:21.600000	6399	90.1	323.9	-89.9	0	NA	-21.0084028804373	55.2099346967898	313948.410032292	7675880.21077885	40	K	1458.78	322.37	NA	NA	NA	NA	NA	Jul-29th-2024-03-56PM-Flight-Airdata	RGB	1	7
20240729001J	2024-07-29 12:00:38.800000	6919	90	27.1	-90	0	NA	-21.0083464018153	55.2099720833236	313952.226713428	7675886.50725907	40	K	1230.92	364.7	NA	NA	NA	NA	NA	Jul-29th-2024-03-56PM-Flight-Airdata	RGB	1	8
20240729001J	2024-07-29 12:00:42.800000	7035	90.1	27.1	-89.9	0	NA	-21.0082868665654	55.2099877836522	313953.785086108	7675893.1168881	40	K	1232.08	404.12	NA	NA	NA	NA	NA	Jul-29th-2024-03-56PM-Flight-Airdata	RGB	1	9
20240729001J	2024-07-29 12:02:40.200000	10556	89.9	335.5	-61.4	0	NA	-21.0052874614151	55.2099654334391	313947.741216242	7676225.16472714	40	K	1225.66	292.22	NA	NA	NA	NA	NA	Jul-29th-2024-03-56PM-Flight-Airdata	RGB	2	1
20240729001J	2024-07-29 12:02:57.400000	11072	89.8	335.4	-82.3	0	NA	-21.0049772154593	55.2103220629209	313984.432813222	7676259.92835916	40	K	1441.06	358.18	NA	NA	NA	NA	NA	Jul-29th-2024-03-56PM-Flight-Airdata	RGB	2	2
20240729001J	2024-07-29 12:03:25.600000	11916	89.7	337.1	-50.8	0	NA	-21.0044804931305	55.2101972292311	313970.83871696	7676314.77672013	40	K	1402.66	463.38	NA	NA	NA	NA	NA	Jul-29th-2024-03-56PM-Flight-Airdata	RGB	2	3
20240729002A	2024-07-26 05:35:16.500000	18028	90.6	223.1	-67.9	0	NA	-21.0712468754564	55.2013712036722	313136.580969286	7668912.50073377	40	K	1315.77	696.84	NA	NA	NA	NA	NA	Jul-26th-2024-09-21AM-Flight-Airdata	RGB	1	1
20240729002A	2024-07-26 05:35:35.100000	18583	90.8	223.1	-89.9	0	NA	-21.0711674407694	55.2014536337937	313145.047625827	7668921.39200432	40	K	1311.45	903.15	NA	NA	NA	NA	NA	Jul-26th-2024-09-21AM-Flight-Airdata	RGB	1	2
20240729003A	2024-07-26 05:34:58.500000	17487	90.7	241.7	-43.7	0	NA	-21.0708312284911	55.2011106619562	313108.986470094	7668958.21313717	40	K	1432.63	272.68	NA	NA	NA	NA	NA	Jul-26th-2024-09-21AM-Flight-Airdata	RGB	1	1
20240729003A	2024-07-26 05:35:07.500000	17757	90.7	233.8	-56.3	0	NA	-21.0710394278266	55.2012518062164	313123.91414738	7668935.32808562	40	K	1477.36	530.93	NA	NA	NA	NA	NA	Jul-26th-2024-09-21AM-Flight-Airdata	RGB	1	2
20240729008A	2024-07-29 12:32:35.600000	885	91.1	69.7	-40.2	0	NA	-21.0067133653193	55.224630477408	315474.114220359	7676084.30881738	40	K	1470.15	709.83	NA	NA	NA	NA	NA	Jul-29th-2024-04-31PM-Flight-Airdata	RGB	1	1
20240729008A	2024-07-29 12:32:54.400000	1449	90.7	63.5	-61.3	0	NA	-21.0069033791846	55.2247298086086	315484.674578079	7676063.38663234	40	K	1654.82	629.03	NA	NA	NA	NA	NA	Jul-29th-2024-04-31PM-Flight-Airdata	RGB	1	2
20240729008A	2024-07-29 12:33:16.400000	2110	90.6	66	-90	0	NA	-21.0072430956138	55.2248527005654	315497.868456963	7676025.91769894	40	K	1705.31	646.34	NA	NA	NA	NA	NA	Jul-29th-2024-04-31PM-Flight-Airdata	RGB	1	3
20240729008A	2024-07-29 12:33:47.400000	3040	90.6	79.5	-84.8	0	NA	-21.0074558114221	55.2246952323305	315481.75955768	7676002.18549154	40	K	1513.43	569.88	NA	NA	NA	NA	NA	Jul-29th-2024-04-31PM-Flight-Airdata	RGB	1	4
20240729008A	2024-07-29 12:35:11.200000	5548	88.1	89.4	-82.7	0	NA	-21.0078459671623	55.2246903346891	315481.730357202	7675958.98468109	40	K	1656.26	507.84	NA	NA	NA	NA	NA	Jul-29th-2024-04-31PM-Flight-Airdata	RGB	1	5
20240729008A	2024-07-29 12:35:32.400000	6185	88.3	89.4	-90	0	NA	-21.0081075290889	55.2246327719217	315476.067875473	7675929.95998487	40	K	1572.58	574.21	NA	NA	NA	NA	NA	Jul-29th-2024-04-31PM-Flight-Airdata	RGB	1	6
20240729008A	2024-07-29 12:36:08.400000	7263	88.1	89.4	-90	0	NA	-21.0082711121478	55.2246460275681	315477.647186607	7675911.86459233	40	K	1650.49	483.32	NA	NA	NA	NA	NA	Jul-29th-2024-04-31PM-Flight-Airdata	RGB	1	7
20240729008A	2024-07-29 12:36:28.600000	7869	89	118.8	-90	0	NA	-21.0083721684985	55.2245482040996	315467.601749697	7675900.56336982	40	K	1782.38	310.59	NA	NA	NA	NA	NA	Jul-29th-2024-04-31PM-Flight-Airdata	RGB	1	8
20240729008A	2024-07-29 12:36:38	8153	90.5	118.8	-90	0	NA	-21.0084366769446	55.2244914304026	315461.778905164	7675893.35588049	40	K	1667.9	351.29	NA	NA	NA	NA	NA	Jul-29th-2024-04-31PM-Flight-Airdata	RGB	1	9
20240729008A	2024-07-29 12:36:47	8424	90.4	118.8	-89.9	0	NA	-21.008480922777	55.2244843062126	315461.092710998	7675888.44907812	40	K	1644.68	346.94	NA	NA	NA	NA	NA	Jul-29th-2024-04-31PM-Flight-Airdata	RGB	1	10
20240729008A	2024-07-29 12:38:30.800000	11532	90.1	116.6	-89.9	0	NA	-21.0091593284267	55.2244745488481	315460.913042112	7675813.32974189	40	K	1593.87	383.23	NA	NA	NA	NA	NA	Jul-29th-2024-04-31PM-Flight-Airdata	RGB	1	11
20240729008A	2024-07-29 12:38:49.400000	12087	90.1	116.6	-89.9	0	NA	-21.0092787262132	55.2245096312384	315464.707107201	7675800.15143317	40	K	1627.26	330.97	NA	NA	NA	NA	NA	Jul-29th-2024-04-31PM-Flight-Airdata	RGB	1	12
20240729008A	2024-07-29 12:39:24	13129	90	116.6	-89.9	0	NA	-21.0095274466071	55.2244922271928	315463.203817781	7675772.59483865	40	K	1586.3	427.73	NA	NA	NA	NA	NA	Jul-29th-2024-04-31PM-Flight-Airdata	RGB	1	13
20240729009J	2024-07-29 12:32:54.800000	1460	90.7	63.5	-61.3	0	NA	-21.006860205104	55.2247423345823	315485.923686719	7676068.18101493	40	K	1601.13	596.61	NA	NA	NA	NA	NA	Jul-29th-2024-04-31PM-Flight-Airdata	RGB	1	1
20240729009J	2024-07-29 12:33:08.200000	1867	90.6	80.3	-87.7	0	NA	-21.0071056124482	55.2247321649029	315485.168312451	7676040.9995874	40	K	1621.69	404.7	NA	NA	NA	NA	NA	Jul-29th-2024-04-31PM-Flight-Airdata	RGB	1	2
20240729009J	2024-07-29 12:33:11.600000	1964	90.6	80.3	-89	0	NA	-21.0072045071697	55.2247528807961	315487.443613577	7676030.07462639	40	K	1651.94	577.74	NA	NA	NA	NA	NA	Jul-29th-2024-04-31PM-Flight-Airdata	RGB	1	3
20240729009J	2024-07-29 12:33:29.200000	2491	90.6	165.3	-89.9	0	NA	-21.0070756830988	55.2244067101449	315451.296813156	7676043.9371727	40	K	1434.19	178.55	NA	NA	NA	NA	NA	Jul-29th-2024-04-31PM-Flight-Airdata	RGB	1	4
20240729009J	2024-07-29 12:36:17.400000	7534	88.1	94.4	-90	0	NA	-21.0083289739524	55.224691582057	315482.454232794	7675905.51118629	40	K	1754.19	489.68	NA	NA	NA	NA	NA	Jul-29th-2024-04-31PM-Flight-Airdata	RGB	2	1
20240729009J	2024-07-29 12:36:25.600000	7781	88.1	118.2	-89.9	0	NA	-21.0083240353249	55.2245558637463	315468.33883023	7675905.90116794	40	K	1751.31	355.74	NA	NA	NA	NA	NA	Jul-29th-2024-04-31PM-Flight-Airdata	RGB	2	2
20240729009J	2024-07-29 12:36:45.200000	8369	90.4	118.8	-90	0	NA	-21.0084272948722	55.2244939825915	315462.032688134	7675894.39754282	40	K	1571.28	370.14	NA	NA	NA	NA	NA	Jul-29th-2024-04-31PM-Flight-Airdata	RGB	2	3
20240729009J	2024-07-29 12:37:09.400000	9091	90.4	118.8	-89.9	0	NA	-21.0086005302847	55.2244126345104	315453.788869174	7675875.1242119	40	K	1428.7	459.43	NA	NA	NA	NA	NA	Jul-29th-2024-04-31PM-Flight-Airdata	RGB	2	4
20240729009J	2024-07-29 12:37:27.400000	9632	90.2	110.2	-89.9	0	NA	-21.0087371766727	55.2244679297174	315459.705498647	7675860.05961951	40	K	1561.2	445.03	NA	NA	NA	NA	NA	Jul-29th-2024-04-31PM-Flight-Airdata	RGB	2	5
20240729009J	2024-07-29 12:38:00.800000	10635	90.2	125.5	-90	0	NA	-21.0089188192251	55.2243785254554	315450.634527537	7675839.8462005	40	K	1490.63	492.56	NA	NA	NA	NA	NA	Jul-29th-2024-04-31PM-Flight-Airdata	RGB	2	6
20240729009J	2024-07-29 12:38:28.200000	11456	90.1	116.6	-89.9	0	NA	-21.0090822330356	55.2244692885416	315460.271322025	7675821.8590969	40	K	1518	401.82	NA	NA	NA	NA	NA	Jul-29th-2024-04-31PM-Flight-Airdata	RGB	2	7
20240729009J	2024-07-29 12:38:54	12227	90.1	116.6	-90	0	NA	-21.0092596904164	55.224518759012	315465.632606477	7675802.26948184	40	K	1548.24	344.21	NA	NA	NA	NA	NA	Jul-29th-2024-04-31PM-Flight-Airdata	RGB	2	8
20240729009J	2024-07-29 12:39:20	13008	90	116.6	-89.9	0	NA	-21.0094549663286	55.224493790232	315463.277129241	7675780.62112619	40	K	1497.83	472.39	NA	NA	NA	NA	NA	Jul-29th-2024-04-31PM-Flight-Airdata	RGB	3	1
20240729009J	2024-07-29 12:39:25.800000	13182	90	116.6	-90	0	NA	-21.0094919699408	55.2245056559743	315464.556216799	7675776.53806859	40	K	1516.56	434.95	NA	NA	NA	NA	NA	Jul-29th-2024-04-31PM-Flight-Airdata	RGB	3	2
20240729009J	2024-07-29 12:39:31	13339	90	116.6	-89.9	0	NA	-21.0095201014408	55.224492659741	315463.239747622	7675773.40854103	40	K	1471.91	457.99	NA	NA	NA	NA	NA	Jul-29th-2024-04-31PM-Flight-Airdata	RGB	3	3
20240729009J	2024-07-29 12:35:15.400000	5678	88.1	89.4	-90	0	NA	-21.0079374263555	55.2247290262819	315485.865272903	7675948.90369164	40	K	1636.09	593.37	NA	NA	NA	NA	NA	Jul-29th-2024-04-31PM-Flight-Airdata	RGB	4	1
20240729009J	2024-07-29 12:35:22	5876	88.1	89.4	-89.9	0	NA	-21.0079817474495	55.2247302905741	315486.051232134	7675943.99824884	40	K	1683.62	603.45	NA	NA	NA	NA	NA	Jul-29th-2024-04-31PM-Flight-Airdata	RGB	4	2
20240729009J	2024-07-29 12:35:35	6265	88.2	89.4	-89.9	0	NA	-21.008070814464	55.2246344811026	315476.200394777	7675934.02673088	40	K	1505.03	566.01	NA	NA	NA	NA	NA	Jul-29th-2024-04-31PM-Flight-Airdata	RGB	4	3
20240730001A	2024-07-30 11:47:58.400000	13980	87.3	247.7	-89.9	0	NA	-21.1338818701481	55.2669442441604	320026.227315077	7662053.5935983	40	K	1561.04	551.12	NA	NA	NA	NA	NA	Jul-30th-2024-03-39PM-Flight-Airdata	RGB	1	1
20240730001A	2024-07-30 11:48:09.200000	14302	87.3	247.7	-89.9	0	NA	-21.133802827893	55.2669241824778	320024.048017283	7662062.32180865	40	K	1513.43	592.96	NA	NA	NA	NA	NA	Jul-30th-2024-03-39PM-Flight-Airdata	RGB	1	2
20240730001A	2024-07-30 11:48:16.400000	14516	87.2	248.6	-89.9	0	NA	-21.1337655208806	55.2669182360688	320023.385297293	7662066.44541245	40	K	1578.35	624.7	NA	NA	NA	NA	NA	Jul-30th-2024-03-39PM-Flight-Airdata	RGB	1	3
20240730001A	2024-07-30 11:48:25	14777	87.1	277.1	-90	0	NA	-21.1336815105139	55.2670959180086	320041.739901652	7662075.9477159	40	K	1705.31	551.12	NA	NA	NA	NA	NA	Jul-30th-2024-03-39PM-Flight-Airdata	RGB	1	4
20240730001A	2024-07-30 11:48:39.800000	15218	87.1	277.1	-89.9	0	NA	-21.1335538603656	55.2670282222955	320034.554091464	7662090.00344279	40	K	1601.43	483.32	NA	NA	NA	NA	NA	Jul-30th-2024-03-39PM-Flight-Airdata	RGB	1	5
20240730001A	2024-07-30 11:48:45.200000	15383	87	277.1	-90	0	NA	-21.1335320954575	55.2670229372838	320033.978844125	7662092.40709552	40	K	1615.86	471.77	NA	NA	NA	NA	NA	Jul-30th-2024-03-39PM-Flight-Airdata	RGB	1	6
20240730001A	2024-07-30 11:49:04.200000	15949	86.9	314.9	-90	0	NA	-21.1334876043052	55.2672032339711	320052.652803741	7662097.53708761	40	K	1634.62	255.36	NA	NA	NA	NA	NA	Jul-30th-2024-03-39PM-Flight-Airdata	RGB	1	7
20240730003J	2024-07-30 12:39:49.500000	8612	77.5	322.6	-89.9	0	NA	-21.1286427620784	55.2592466345122	319220.31072337	7662624.88658767	40	K	1354.73	500.63	NA	NA	NA	NA	NA	Jul-30th-2024-04-25PM-Flight-Airdata	RGB	1	1
20240730003J	2024-07-30 12:39:53.100000	8723	77.5	324.3	-89.9	0	NA	-21.1286273479291	55.2592301355345	319218.578193108	7662626.5743514	40	K	1370.6	445.8	NA	NA	NA	NA	NA	Jul-30th-2024-04-25PM-Flight-Airdata	RGB	1	2
20240730003J	2024-07-30 12:40:03.500000	9032	77.4	324.3	-90	0	NA	-21.1285584809056	55.2591478425487	319209.946459608	7662634.10514283	40	K	1369.15	356.36	NA	NA	NA	NA	NA	Jul-30th-2024-04-25PM-Flight-Airdata	RGB	1	3
20240730003J	2024-07-30 12:40:20.500000	9543	77.6	0.5	-89.9	0	NA	-21.128594424765	55.2591009476183	319205.118833305	7662630.07234079	40	K	1191.7	307.3	NA	NA	NA	NA	NA	Jul-30th-2024-04-25PM-Flight-Airdata	RGB	2	1
20240730003J	2024-07-30 12:40:26.300000	9716	77.6	357.7	-90	0	NA	-21.1285656593748	55.2590236474654	319197.054366866	7662633.16905606	40	K	1275.38	405.41	NA	NA	NA	NA	NA	Jul-30th-2024-04-25PM-Flight-Airdata	RGB	2	2
20240730003J	2024-07-30 12:40:30.500000	9841	77.6	332	-90	0	NA	-21.1284593344985	55.2589638749547	319190.716503522	7662644.87252105	40	K	1304.23	356.36	NA	NA	NA	NA	NA	Jul-30th-2024-04-25PM-Flight-Airdata	RGB	2	3
20240730003J	2024-07-30 12:40:33.900000	9943	77.6	329.3	-90	0	NA	-21.1283984775909	55.2589444873013	319188.628781428	7662651.58807567	40	K	1338.86	278.45	NA	NA	NA	NA	NA	Jul-30th-2024-04-25PM-Flight-Airdata	RGB	2	4
20240730003J	2024-07-30 12:40:37.900000	10065	77.6	329.3	-90	0	NA	-21.1283583652802	55.2589042408135	319184.3995018	7662655.98320334	40	K	1337.41	240.94	NA	NA	NA	NA	NA	Jul-30th-2024-04-25PM-Flight-Airdata	RGB	2	5
20240730003J	2024-07-30 12:40:41.300000	10163	77.6	329.3	-89.9	0	NA	-21.1283437067081	55.258863016539	319180.099529877	7662657.55917005	40	K	1330.2	282.78	NA	NA	NA	NA	NA	Jul-30th-2024-04-25PM-Flight-Airdata	RGB	2	6
20240730003J	2024-07-30 12:40:46.100000	10311	77.6	329.3	-89.9	0	NA	-21.1283448193909	55.2588378617406	319177.487913716	7662657.40735104	40	K	1315.77	320.29	NA	NA	NA	NA	NA	Jul-30th-2024-04-25PM-Flight-Airdata	RGB	2	7
20240730003J	2024-07-30 12:40:50.700000	10450	77.6	329.3	-89.9	0	NA	-21.1283132554126	55.2588076949324	319174.316031397	7662660.86754182	40	K	1338.86	337.6	NA	NA	NA	NA	NA	Jul-30th-2024-04-25PM-Flight-Airdata	RGB	2	8
20240730003J	2024-07-30 12:41:08.900000	10992	77.5	327.4	-89.9	0	NA	-21.1282355868063	55.2586554085612	319158.402981217	7662669.29308467	40	K	1344.63	454.46	NA	NA	NA	NA	NA	Jul-30th-2024-04-25PM-Flight-Airdata	RGB	3	1
20240730003J	2024-07-30 12:41:11.900000	11080	77.5	327.4	-90	0	NA	-21.1282155321341	55.2586375086013	319156.519281929	7662671.49301181	40	K	1344.63	422.72	NA	NA	NA	NA	NA	Jul-30th-2024-04-25PM-Flight-Airdata	RGB	3	2
20240730003J	2024-07-30 12:41:14.700000	11165	77.6	327.4	-90	0	NA	-21.1282027858266	55.2586206044017	319154.747884289	7662672.88494485	40	K	1343.19	416.95	NA	NA	NA	NA	NA	Jul-30th-2024-04-25PM-Flight-Airdata	RGB	3	3
20240730003J	2024-07-30 12:41:25.500000	11492	77.5	327.4	-90	0	NA	-21.128182963714	55.2584786497555	319139.978214533	7662674.91790141	40	K	1331.64	662.21	NA	NA	NA	NA	NA	Jul-30th-2024-04-25PM-Flight-Airdata	RGB	3	4
20240730003J	2024-07-30 12:41:30.100000	11626	77.6	327.4	-89.9	0	NA	-21.1281461327542	55.2584578638537	319137.774377186	7662678.9718862	40	K	1346.07	613.16	NA	NA	NA	NA	NA	Jul-30th-2024-04-25PM-Flight-Airdata	RGB	3	5
20240730003J	2024-07-30 12:41:34.900000	11773	77.3	327.4	-89.9	0	NA	-21.1281276366247	55.2584467932434	319136.601967981	7662681.00703596	40	K	1376.37	640.57	NA	NA	NA	NA	NA	Jul-30th-2024-04-25PM-Flight-Airdata	RGB	3	6
20240730003J	2024-07-30 12:41:39.100000	11900	77.2	327.4	-89.9	0	NA	-21.1280973908954	55.2584355524974	319135.397628738	7662684.34281973	40	K	1390.8	591.52	NA	NA	NA	NA	NA	Jul-30th-2024-04-25PM-Flight-Airdata	RGB	3	7
20240730003J	2024-07-30 12:41:50.100000	12226	77.1	325.2	-89.9	0	NA	-21.1279793385745	55.258363334344	319127.752673041	7662697.33047071	40	K	1426.86	437.15	NA	NA	NA	NA	NA	Jul-30th-2024-04-25PM-Flight-Airdata	RGB	4	1
20240730003J	2024-07-30 12:41:54.100000	12345	77.1	331.5	-90	0	NA	-21.1279833534391	55.2583652147604	319127.952874417	7662696.88811578	40	K	1413.88	399.64	NA	NA	NA	NA	NA	Jul-30th-2024-04-25PM-Flight-Airdata	RGB	4	2
20240730003J	2024-07-30 12:42:00.100000	12525	77.1	331.5	-89.9	0	NA	-21.1279674639709	55.2583284402855	319124.113618151	7662698.60541074	40	K	1418.21	455.9	NA	NA	NA	NA	NA	Jul-30th-2024-04-25PM-Flight-Airdata	RGB	4	3
20240730003J	2024-07-30 12:42:03.500000	12628	77.1	331.5	-89.9	0	NA	-21.127944998515	55.2583077849814	319121.940772146	7662701.06910135	40	K	1406.67	409.74	NA	NA	NA	NA	NA	Jul-30th-2024-04-25PM-Flight-Airdata	RGB	4	4
20240730003J	2024-07-30 12:42:10.900000	12850	77	331.5	-89.9	0	NA	-21.1279298898043	55.2582036168204	319111.101891075	7662702.62322227	40	K	1357.61	520.83	NA	NA	NA	NA	NA	Jul-30th-2024-04-25PM-Flight-Airdata	RGB	4	5
20240730003J	2024-07-30 12:42:16.300000	13012	77	322	-90	0	NA	-21.127872753021	55.2581431315756	319104.749599838	7662708.88011018	40	K	1338.86	451.58	NA	NA	NA	NA	NA	Jul-30th-2024-04-25PM-Flight-Airdata	RGB	4	6
20240730003J	2024-07-30 12:42:20.700000	13146	76.9	322	-89.9	0	NA	-21.1278372415108	55.2580626829395	319096.349834729	7662712.72007528	40	K	1338.86	484.76	NA	NA	NA	NA	NA	Jul-30th-2024-04-25PM-Flight-Airdata	RGB	4	7
20240730003J	2024-07-30 12:42:25.100000	13274	77	322	-90	0	NA	-21.1278538005052	55.2580644243174	319096.550818353	7662710.88876998	40	K	1327.32	519.38	NA	NA	NA	NA	NA	Jul-30th-2024-04-25PM-Flight-Airdata	RGB	4	8
20240730003J	2024-07-30 12:42:29.900000	13420	77	322	-89.9	0	NA	-21.1278155191732	55.2580289363352	319092.818014546	7662715.08658298	40	K	1340.3	477.54	NA	NA	NA	NA	NA	Jul-30th-2024-04-25PM-Flight-Airdata	RGB	4	9
20240730003J	2024-07-30 12:42:45.100000	13879	77.8	332.3	-90	0	NA	-21.127789095016	55.2580030173363	319090.093586163	7662717.98255389	40	K	1330.2	401.08	NA	NA	NA	NA	NA	Jul-30th-2024-04-25PM-Flight-Airdata	RGB	5	1
20240730003J	2024-07-30 12:42:50.100000	14023	77.6	328.2	-89.9	0	NA	-21.1277360599463	55.2579743651788	319087.052950135	7662723.82157359	40	K	1347.51	334.71	NA	NA	NA	NA	NA	Jul-30th-2024-04-25PM-Flight-Airdata	RGB	5	2
20240730003J	2024-07-30 12:42:54.500000	14157	77.4	328.2	-90	0	NA	-21.1277053109208	55.2579528642059	319084.782196805	7662727.2013919	40	K	1346.07	279.89	NA	NA	NA	NA	NA	Jul-30th-2024-04-25PM-Flight-Airdata	RGB	5	3
20240730003J	2024-07-30 12:43:01.100000	14356	77.6	328.2	-89.9	0	NA	-21.1276594241989	55.2579168459937	319080.985077481	7662732.24061084	40	K	1367.71	269.79	NA	NA	NA	NA	NA	Jul-30th-2024-04-25PM-Flight-Airdata	RGB	5	4
20240730003J	2024-07-30 12:43:06.100000	14503	77.5	328.2	-89.9	0	NA	-21.1276330017171	55.25784686631	319073.6837993	7662735.08621795	40	K	1369.15	353.47	NA	NA	NA	NA	NA	Jul-30th-2024-04-25PM-Flight-Airdata	RGB	5	5
20240730003J	2024-07-30 12:43:14.700000	14765	77.5	324	-90	0	NA	-21.1275460531252	55.2577494994215	319063.464175992	7662744.60163086	40	K	1376.37	264.02	NA	NA	NA	NA	NA	Jul-30th-2024-04-25PM-Flight-Airdata	RGB	5	6
20240730003J	2024-07-30 12:43:28.900000	15186	77.5	325.2	-89.9	0	NA	-21.1275097809028	55.2576177199719	319049.731414992	7662748.46733397	40	K	1330.2	340.49	NA	NA	NA	NA	NA	Jul-30th-2024-04-25PM-Flight-Airdata	RGB	5	7
20240730003J	2024-07-30 12:43:33.900000	15339	77.5	325.2	-90	0	NA	-21.1274808829727	55.2575876434062	319046.572098642	7662751.63244093	40	K	1317.22	274.12	NA	NA	NA	NA	NA	Jul-30th-2024-04-25PM-Flight-Airdata	RGB	5	8
20240730003J	2024-07-30 12:43:42.100000	15582	77.5	323.1	-90	0	NA	-21.1274150706081	55.2575319120123	319040.703043495	7662758.85521736	40	K	1328.76	170.24	NA	NA	NA	NA	NA	Jul-30th-2024-04-25PM-Flight-Airdata	RGB	5	9
20240730003J	2024-07-30 12:43:51.500000	15868	77.4	321	-89.9	0	NA	-21.1273648172108	55.257422102919	319029.235486839	7662764.29382069	40	K	1354.73	246.71	NA	NA	NA	NA	NA	Jul-30th-2024-04-25PM-Flight-Airdata	RGB	5	10
20240730003J	2024-07-30 12:44:21.900000	16776	77.4	321.4	-89.9	0	NA	-21.1272426317362	55.2572230214854	319008.40730866	7662777.59450314	40	K	1403.78	287.1	NA	NA	NA	NA	NA	Jul-30th-2024-04-25PM-Flight-Airdata	RGB	6	1
20240730003J	2024-07-30 12:44:31.900000	17078	77.3	323	-89.9	0	NA	-21.1272186286366	55.2571294011175	318998.65322674	7662780.14529137	40	K	1387.91	365.01	NA	NA	NA	NA	NA	Jul-30th-2024-04-25PM-Flight-Airdata	RGB	6	2
20240730003J	2024-07-30 12:44:42.300000	17390	76.8	327.2	-89.9	0	NA	-21.127195951531	55.2570555387112	318990.953135959	7662782.57178065	40	K	1400.89	447.25	NA	NA	NA	NA	NA	Jul-30th-2024-04-25PM-Flight-Airdata	RGB	6	3
20240730003J	2024-07-30 12:44:49.500000	17606	76.8	326.2	-89.9	0	NA	-21.127147971087	55.2570145403343	318986.63611124	7662787.83710799	40	K	1408.11	393.87	NA	NA	NA	NA	NA	Jul-30th-2024-04-25PM-Flight-Airdata	RGB	6	4
20240730003J	2024-07-30 12:44:58.100000	17864	76.8	328.9	-89.9	0	NA	-21.1270717836923	55.2569696333328	318981.878816757	7662796.22084502	40	K	1449.95	340.49	NA	NA	NA	NA	NA	Jul-30th-2024-04-25PM-Flight-Airdata	RGB	6	5
20240730003J	2024-07-30 12:45:07.700000	18150	76.7	326.6	-89.9	0	NA	-21.1270643131071	55.2569044173749	318975.095344578	7662796.97362608	40	K	1423.98	428.49	NA	NA	NA	NA	NA	Jul-30th-2024-04-25PM-Flight-Airdata	RGB	6	6
20240730003J	2024-07-30 12:46:05.700000	19891	76.7	320.4	-90	0	NA	-21.1267355368505	55.2564274312172	318925.148352591	7662832.82973808	40	K	1367.71	271.23	NA	NA	NA	NA	NA	Jul-30th-2024-04-25PM-Flight-Airdata	RGB	7	1
20240730003J	2024-07-30 12:46:11.500000	20064	76.7	320.4	-90	0	NA	-21.1267118089562	55.2563771904629	318919.90068683	7662835.39945392	40	K	1359.06	259.69	NA	NA	NA	NA	NA	Jul-30th-2024-04-25PM-Flight-Airdata	RGB	7	2
20240730003J	2024-07-30 12:46:19.900000	20311	76.8	320.4	-89.9	0	NA	-21.1266959536994	55.2562797547259	318909.760123665	7662837.04377562	40	K	1361.94	399.64	NA	NA	NA	NA	NA	Jul-30th-2024-04-25PM-Flight-Airdata	RGB	7	3
20240730003J	2024-07-30 12:46:26.500000	20510	77.5	320.4	-90	0	NA	-21.1266842949159	55.2562428738296	318905.91489412	7662838.29251227	40	K	1385.02	487.64	NA	NA	NA	NA	NA	Jul-30th-2024-04-25PM-Flight-Airdata	RGB	7	4
20240730004A	2024-07-30 12:40:03.700000	9038	77.4	324.3	-89.9	0	NA	-21.1285150317082	55.2591580374388	319210.952756865	7662638.9271136	40	K	1425.82	313.97	NA	NA	NA	NA	NA	Jul-30th-2024-04-25PM-Flight-Airdata	RGB	1	1
20240730004A	2024-07-30 12:40:16.900000	9433	77.6	0.5	-89.9	0	NA	-21.128593591073	55.2591518981581	319210.410322827	7662630.22262401	40	K	1224.19	250.6	NA	NA	NA	NA	NA	Jul-30th-2024-04-25PM-Flight-Airdata	RGB	1	2
20240730004A	2024-07-30 12:40:39.900000	10121	77.6	329.3	-89.9	0	NA	-21.1283028514869	55.258892300929	319183.091898288	7662662.11568464	40	K	1389.82	211.71	NA	NA	NA	NA	NA	Jul-30th-2024-04-25PM-Flight-Airdata	RGB	1	3
20240730004A	2024-07-30 12:40:45.500000	10290	77.6	329.3	-89.9	0	NA	-21.1282999362028	55.2588549590417	319179.209455393	7662662.39594125	40	K	1376.85	270.76	NA	NA	NA	NA	NA	Jul-30th-2024-04-25PM-Flight-Airdata	RGB	1	4
20240730004A	2024-07-30 12:40:36.500000	10023	77.6	329.3	-90	0	NA	-21.1283262120418	55.2589355078889	319187.608379312	7662659.5785554	40	K	1392.7	187.23	NA	NA	NA	NA	NA	Jul-30th-2024-04-25PM-Flight-Airdata	RGB	2	1
20240730004A	2024-07-30 12:41:20.900000	11351	77.5	327.4	-89.9	0	NA	-21.128084639221	55.2585243934053	319144.610562631	7662685.85572869	40	K	1392.7	347.09	NA	NA	NA	NA	NA	Jul-30th-2024-04-25PM-Flight-Airdata	RGB	2	2
20240730004A	2024-07-30 12:42:20.500000	13140	76.9	322	-90	0	NA	-21.127792513579	55.2580724032887	319097.305261146	7662717.68308624	40	K	1394.14	426.31	NA	NA	NA	NA	NA	Jul-30th-2024-04-25PM-Flight-Airdata	RGB	2	3
20240730004J	2024-07-30 11:48:02.400000	14098	87.4	247.7	-89.9	0	NA	-21.1338895766309	55.2669158396518	320023.28621094	7662052.70820995	40	K	1491.79	526.6	NA	NA	NA	NA	NA	Jul-30th-2024-03-39PM-Flight-Airdata	RGB	1	1
20240730004J	2024-07-30 11:48:21.400000	14667	87.2	269.4	-90	0	NA	-21.133769007776	55.2670912692089	320041.362691056	7662066.25543366	40	K	1566.81	639.13	NA	NA	NA	NA	NA	Jul-30th-2024-03-39PM-Flight-Airdata	RGB	1	2
20240730004J	2024-07-30 11:48:26	14807	87.1	277.1	-90	0	NA	-21.1337284666212	55.2671225081215	320044.558559346	7662070.77922892	40	K	1638.95	594.41	NA	NA	NA	NA	NA	Jul-30th-2024-03-39PM-Flight-Airdata	RGB	1	3
20240730004J	2024-07-30 11:48:35.600000	15091	87.2	277.1	-89.9	0	NA	-21.1336500521334	55.2670508779123	320037.023532613	7662079.37951012	40	K	1566.81	513.61	NA	NA	NA	NA	NA	Jul-30th-2024-03-39PM-Flight-Airdata	RGB	1	4
20240730004J	2024-07-30 11:48:43.800000	15337	87	277.1	-89.9	0	NA	-21.1336013590933	55.2670098913515	320032.707393687	7662084.72398335	40	K	1511.99	468.89	NA	NA	NA	NA	NA	Jul-30th-2024-03-39PM-Flight-Airdata	RGB	1	5
20240730004J	2024-07-30 11:48:51.400000	15565	87	285	-90	0	NA	-21.1335647370158	55.267041368454	320035.932737937	7662088.81416031	40	K	1529.3	432.82	NA	NA	NA	NA	NA	Jul-30th-2024-03-39PM-Flight-Airdata	RGB	1	6
20240730020A	2024-08-06 07:19:52.800000	1671	78.7	250.8	-50.4	0	NA	-20.9947864388696	55.1788815714073	310702.898412725	7677351.26444787	40	K	1606.94	618.39	NA	NA	NA	NA	NA	Aug-6th-2024-11-18AM-Flight-Airdata	RGB	1	1
20240730020A	2024-08-06 07:20:04.400000	2018	78.8	262	-56	0	NA	-20.994710582482	55.1788913323965	310703.817607745	7677359.67441236	40	K	1538.71	452.9	NA	NA	NA	NA	NA	Aug-6th-2024-11-18AM-Flight-Airdata	RGB	1	2
20240730020A	2024-08-06 07:20:11	2218	78.8	263.8	-60.6	0	NA	-20.994755740115	55.1789550618022	310710.500618666	7677354.75028738	40	K	1541.61	528.39	NA	NA	NA	NA	NA	Aug-6th-2024-11-18AM-Flight-Airdata	RGB	1	3
20240730020A	2024-08-06 07:20:17	2396	78.7	263.2	-62.3	0	NA	-20.9947433030364	55.1788016505841	310694.534500576	7677355.94554912	40	K	1598.23	445.65	NA	NA	NA	NA	NA	Aug-6th-2024-11-18AM-Flight-Airdata	RGB	1	4
20240730020A	2024-08-06 07:24:41.200000	10314	84.6	234.3	-65	0	NA	-20.9944944936661	55.1764872795254	310453.590952604	7677380.74933744	40	K	1659.19	579.19	NA	NA	NA	NA	NA	Aug-6th-2024-11-18AM-Flight-Airdata	RGB	2	1
20240730020A	2024-08-06 07:24:51.600000	10626	84.5	225.9	-55.2	0	NA	-20.9945195658106	55.1763178019452	310436.00169071	7677377.77248008	40	K	1829.03	696.77	NA	NA	NA	NA	NA	Aug-6th-2024-11-18AM-Flight-Airdata	RGB	2	2
20240730020A	2024-08-06 07:24:58	10818	84.6	247.6	-57.1	0	NA	-20.9944226264874	55.1762898823934	310432.976403201	7677388.47196682	40	K	1625.81	464.52	NA	NA	NA	NA	NA	Aug-6th-2024-11-18AM-Flight-Airdata	RGB	2	3
20240730021A	2024-08-06 07:20:02.800000	1972	78.8	262	-56	0	NA	-20.9947423186852	55.1789544539954	310710.420497107	7677356.23551461	40	K	1505.32	503.71	NA	NA	NA	NA	NA	Aug-6th-2024-11-18AM-Flight-Airdata	RGB	1	1
20240730021A	2024-08-06 07:20:07.800000	2120	78.8	260.7	-56	0	NA	-20.9947871168733	55.1788875691153	310703.522859848	7677351.19648681	40	K	1521.29	558.87	NA	NA	NA	NA	NA	Aug-6th-2024-11-18AM-Flight-Airdata	RGB	1	2
20240730021A	2024-08-06 07:20:14.600000	2323	78.7	263.5	-62.3	0	NA	-20.9947775539443	55.178890788927	310703.845568203	7677352.25905549	40	K	1528.55	473.23	NA	NA	NA	NA	NA	Aug-6th-2024-11-18AM-Flight-Airdata	RGB	1	3
20240730021A	2024-08-06 07:20:22	2546	78.9	266.3	-63.1	0	NA	-20.9947587037692	55.1788893044111	310703.667446208	7677354.34428527	40	K	1551.77	496.45	NA	NA	NA	NA	NA	Aug-6th-2024-11-18AM-Flight-Airdata	RGB	1	4
20240730021A	2024-08-06 07:20:40.800000	3109	84.6	296.1	-66.9	0	NA	-20.994725740884	55.1789946341687	310714.577192782	7677358.11850549	40	K	1424.03	497.9	NA	NA	NA	NA	NA	Aug-6th-2024-11-18AM-Flight-Airdata	RGB	1	5
20240730023A	2024-08-06 07:20:40.200000	3091	84.6	296.1	-66.9	0	NA	-20.9945467679265	55.1790694869543	310722.134066755	7677378.02205819	40	K	1683.87	477.58	NA	NA	NA	NA	NA	Aug-6th-2024-11-18AM-Flight-Airdata	RGB	1	1
20240730023A	2024-08-06 07:20:48.400000	3336	84.6	296.1	-59.8	0	NA	-20.9945488171933	55.1790093263376	310715.881638806	7677377.723926	40	K	1624.35	557.42	NA	NA	NA	NA	NA	Aug-6th-2024-11-18AM-Flight-Airdata	RGB	1	2
20240731003J	2024-07-31 04:48:26	2040	84.1	311.6	-46.1	0	NA	-21.0412420264851	55.1962444948919	312566.238218969	7672228.44749084	40	K	1529.98	560.09	NA	NA	NA	NA	NA	Jul-31st-2024-08-40AM-Flight-Airdata	RGB	1	1
20240731003J	2024-07-31 04:48:34.200000	2281	84.6	311.6	-74.5	0	NA	-21.0414022760493	55.196117967291	312553.287722408	7672210.55687275	40	K	1406.02	404.41	NA	NA	NA	NA	NA	Jul-31st-2024-08-40AM-Flight-Airdata	RGB	1	2
20240731003J	2024-07-31 04:48:58.800000	3018	83.9	265.8	-88	0	NA	-21.0416366546359	55.1957427138718	312514.577887421	7672184.16672582	40	K	1062.89	463.75	NA	NA	NA	NA	NA	Jul-31st-2024-08-40AM-Flight-Airdata	RGB	1	3
20240731003J	2024-07-31 04:51:33.800000	7664	83.7	187	-43.1	0	NA	-21.043827058024	55.194985298962	312438.597455635	7671940.76707034	40	K	1414.3	656.74	NA	NA	NA	NA	NA	Jul-31st-2024-08-40AM-Flight-Airdata	RGB	2	1
20240731003J	2024-07-31 04:51:37.600000	7781	83.8	187	-43.1	0	NA	-21.0438569393124	55.1949687691323	312436.916832429	7671937.43934082	40	K	1417.18	630.82	NA	NA	NA	NA	NA	Jul-31st-2024-08-40AM-Flight-Airdata	RGB	2	2
20240731003J	2024-07-31 04:51:47.800000	8086	83.8	186.6	-52.3	0	NA	-21.043971377916	55.1949401532865	312434.085967841	7671924.73568654	40	K	1427.26	414.78	NA	NA	NA	NA	NA	Jul-31st-2024-08-40AM-Flight-Airdata	RGB	2	3
20240731003J	2024-07-31 04:54:37.800000	13178	83.8	323.5	-90	0	NA	-21.0460877463244	55.1955123407591	312496.208218344	7671691.09624115	40	K	1397.9	432.58	NA	NA	NA	NA	NA	Jul-31st-2024-08-40AM-Flight-Airdata	RGB	3	1
20240731003J	2024-07-31 04:54:46.800000	13453	83.8	312.2	-90	0	NA	-21.0461271640912	55.1954429333193	312489.04370674	7671686.65050883	40	K	1294.84	483.39	NA	NA	NA	NA	NA	Jul-31st-2024-08-40AM-Flight-Airdata	RGB	3	2
20240731003J	2024-07-31 04:54:55.400000	13706	83.7	332	-90	0	NA	-21.0463105466625	55.1954689600542	312491.978520267	7671666.37803079	40	K	1172.9	685.16	NA	NA	NA	NA	NA	Jul-31st-2024-08-40AM-Flight-Airdata	RGB	3	3
20240731003J	2024-07-31 04:54:59.400000	13830	83.7	345.7	-89.9	0	NA	-21.0464374515911	55.1954848547648	312493.789508784	7671652.34652385	40	K	1177.26	823.06	NA	NA	NA	NA	NA	Jul-31st-2024-08-40AM-Flight-Airdata	RGB	3	4
20240731003J	2024-07-31 04:55:10.200000	14152	83.7	351	-89.9	0	NA	-21.046591626458	55.1954713486486	312492.57887927	7671635.26126853	40	K	1203.39	801.29	NA	NA	NA	NA	NA	Jul-31st-2024-08-40AM-Flight-Airdata	RGB	3	5
20240731003J	2024-07-31 04:55:21	14476	83.7	351	-89.9	0	NA	-21.0467170359119	55.195427330488	312488.160951937	7671621.32487511	40	K	1255.65	770.81	NA	NA	NA	NA	NA	Jul-31st-2024-08-40AM-Flight-Airdata	RGB	3	6
20240731003J	2024-07-31 04:55:30.600000	14761	83.8	306.8	-90	0	NA	-21.0466042809169	55.1952686730122	312471.529632643	7671633.62188354	40	K	982.74	622.74	NA	NA	NA	NA	NA	Jul-31st-2024-08-40AM-Flight-Airdata	RGB	3	7
20240731003J	2024-07-31 04:58:16.800000	19746	83.8	181.3	-61.1	0	NA	-21.0488411036718	55.1944050222734	312384.569864734	7671384.95734221	40	K	1500.97	258.39	NA	NA	NA	NA	NA	Jul-31st-2024-08-40AM-Flight-Airdata	RGB	4	1
20240731003J	2024-07-31 04:58:33.600000	20248	83.8	182.2	-45.9	0	NA	-21.0490547152674	55.1943411948669	312378.203840577	7671361.23234118	40	K	1454.52	406.45	NA	NA	NA	NA	NA	Jul-31st-2024-08-40AM-Flight-Airdata	RGB	4	2
20240731003J	2024-07-31 04:59:43.400000	22340	83.8	179.4	-70.8	0	NA	-21.0499412362276	55.1946359939629	312409.954488527	7671263.42856832	40	K	1477.74	555.97	NA	NA	NA	NA	NA	Jul-31st-2024-08-40AM-Flight-Airdata	RGB	5	1
20240731003J	2024-07-31 05:00:06.400000	23027	83.8	179.4	-89.9	0	NA	-21.0501824953834	55.194697580284	312416.657720921	7671236.7901609	40	K	1429.84	405	NA	NA	NA	NA	NA	Jul-31st-2024-08-40AM-Flight-Airdata	RGB	5	2
20240731003J	2024-07-31 05:00:16.400000	23330	83.9	168.8	-90	0	NA	-21.0503274402061	55.194719421118	312419.109370001	7671220.7683741	40	K	1457.51	270.76	NA	NA	NA	NA	NA	Jul-31st-2024-08-40AM-Flight-Airdata	RGB	5	3
20240731003J	2024-07-31 04:51:59.400000	8436	83.8	186.6	-66.1	0	NA	-21.0441087187587	55.1949577413538	312436.086089422	7671909.55076999	40	K	1456.07	283.72	NA	NA	NA	NA	NA	Jul-31st-2024-08-40AM-Flight-Airdata	RGB	6	1
20240731003J	2024-07-31 04:52:11.600000	8797	83.8	186.6	-90	0	NA	-21.0442914551946	55.1949829531432	312438.935468538	7671889.34887602	40	K	1513.68	197.31	NA	NA	NA	NA	NA	Jul-31st-2024-08-40AM-Flight-Airdata	RGB	6	2
20240731003J	2024-07-31 04:52:18.400000	9004	83.8	239.7	-89.9	0	NA	-21.0441233265984	55.1951219481288	312453.171513262	7671908.12660288	40	K	1139.22	220.35	NA	NA	NA	NA	NA	Jul-31st-2024-08-40AM-Flight-Airdata	RGB	6	3
20240731004A	2024-07-31 04:48:24.200000	1987	84	320.8	-46.1	0	NA	-21.0414292103215	55.1962804716125	312570.211912817	7672207.76584965	40	K	1230.65	473.22	NA	NA	NA	NA	NA	Jul-31st-2024-08-40AM-Flight-Airdata	RGB	1	1
20240731004A	2024-07-31 04:48:34.800000	2300	84.6	311.6	-74.5	0	NA	-21.0415894689389	55.1960209494803	312543.438191688	7672189.71791679	40	K	1112.35	486.2	NA	NA	NA	NA	NA	Jul-31st-2024-08-40AM-Flight-Airdata	RGB	1	2
20240731004A	2024-07-31 04:48:41.800000	2511	84.6	301.3	-85.4	0	NA	-21.0416597861838	55.1959180375863	312532.829727746	7672181.81182832	40	K	1008.47	523.71	NA	NA	NA	NA	NA	Jul-31st-2024-08-40AM-Flight-Airdata	RGB	1	3
20240731004A	2024-07-31 04:54:42.800000	13331	83.8	323.5	-90	0	NA	-21.0461716040955	55.1956073377659	312506.186805094	7671681.92368834	40	K	1434.08	607.39	NA	NA	NA	NA	NA	Jul-31st-2024-08-40AM-Flight-Airdata	RGB	2	1
20240731004A	2024-07-31 04:54:55.800000	13719	83.7	333.6	-89.9	0	NA	-21.0463450202879	55.1955746769457	312503.009410902	7671662.68562081	40	K	1297.02	789.18	NA	NA	NA	NA	NA	Jul-31st-2024-08-40AM-Flight-Airdata	RGB	2	2
20240731004A	2024-07-31 04:55:05.600000	14016	83.7	351	-89.9	0	NA	-21.0465553850616	55.1955801735884	312503.844207039	7671639.40168293	40	K	1346.07	893.05	NA	NA	NA	NA	NA	Jul-31st-2024-08-40AM-Flight-Airdata	RGB	2	3
20240731004A	2024-07-31 04:55:20.800000	14472	83.7	351	-90	0	NA	-21.0467625073225	55.1955220910573	312498.066846561	7671616.4019729	40	K	1385.02	852.66	NA	NA	NA	NA	NA	Jul-31st-2024-08-40AM-Flight-Airdata	RGB	2	4
20240731004A	2024-07-31 04:55:29.600000	14735	83.8	306.8	-89.9	0	NA	-21.0466532439913	55.1953683629501	312481.952248172	7671628.31821019	40	K	1011.36	780.52	NA	NA	NA	NA	NA	Jul-31st-2024-08-40AM-Flight-Airdata	RGB	2	5
20240731004A	2024-07-31 04:55:48.400000	15295	83.8	306.8	-90	0	NA	-21.0469047719305	55.1952842108537	312473.521018735	7671600.37148215	40	K	1115.23	731.47	NA	NA	NA	NA	NA	Jul-31st-2024-08-40AM-Flight-Airdata	RGB	2	6
20240731004A	2024-07-31 04:55:55.600000	15511	83.8	306.8	-90	0	NA	-21.0470146391086	55.195257002894	312470.830810897	7671588.17560576	40	K	1175.83	779.08	NA	NA	NA	NA	NA	Jul-31st-2024-08-40AM-Flight-Airdata	RGB	2	7
20240731004A	2024-07-31 05:00:05.600000	23005	83.8	179.4	-89.9	0	NA	-21.0501967562816	55.194765539984	312423.738821462	7671235.2912362	40	K	1328.76	382.32	NA	NA	NA	NA	NA	Jul-31st-2024-08-40AM-Flight-Airdata	RGB	3	1
20240731004A	2024-07-31 05:00:24.600000	23576	83.8	164	-90	0	NA	-21.0505304104328	55.1948113134485	312428.914360337	7671198.40475959	40	K	1441.29	193.33	NA	NA	NA	NA	NA	Jul-31st-2024-08-40AM-Flight-Airdata	RGB	3	2
20240731006A	2024-07-31 06:26:27	23495	77.6	255.6	-87.9	0	NA	-21.0547488269003	55.1951228562722	312466.580515949	7670731.73160938	40	K	1370.6	266.91	NA	NA	NA	NA	NA	Jul-31st-2024-10-12AM-Flight-Airdata	RGB	1	1
20240731006A	2024-07-31 06:26:33.600000	23694	77.5	275.4	-90	0	NA	-21.054738028971	55.1952061035026	312475.218815422	7670733.0250405	40	K	1359.06	457.35	NA	NA	NA	NA	NA	Jul-31st-2024-10-12AM-Flight-Airdata	RGB	1	2
20240731006A	2024-07-31 06:26:39.400000	23867	77.6	275.4	-89.9	0	NA	-21.0547386582861	55.1951693496211	312471.399795924	7670732.91212421	40	K	1348.96	408.29	NA	NA	NA	NA	NA	Jul-31st-2024-10-12AM-Flight-Airdata	RGB	1	3
20240731006A	2024-07-31 06:26:44.200000	24014	77.6	275.4	-89.9	0	NA	-21.0547338538131	55.1951405649448	312468.402200454	7670733.41018232	40	K	1351.84	365.01	NA	NA	NA	NA	NA	Jul-31st-2024-10-12AM-Flight-Airdata	RGB	1	4
20240731006A	2024-07-31 06:26:49.800000	24179	77.6	264.9	-89.9	0	NA	-21.0547336924055	55.1950516939906	312459.165694049	7670733.32348798	40	K	1389.35	304.42	NA	NA	NA	NA	NA	Jul-31st-2024-10-12AM-Flight-Airdata	RGB	1	5
20240731006A	2024-07-31 06:26:51.200000	24222	77.7	264.9	-89.9	0	NA	-21.0547210158568	55.1950368077831	312457.602690219	7670734.70945006	40	K	1376.37	284.22	NA	NA	NA	NA	NA	Jul-31st-2024-10-12AM-Flight-Airdata	RGB	2	1
20240731006A	2024-07-31 06:26:56	24364	77.7	264.9	-90	0	NA	-21.0547425911445	55.1949813842666	312451.869601449	7670732.25553943	40	K	1324.43	238.05	NA	NA	NA	NA	NA	Jul-31st-2024-10-12AM-Flight-Airdata	RGB	2	2
20240731006A	2024-07-31 06:27:00.400000	24497	77.7	264.9	-89.9	0	NA	-21.0547449346348	55.1949536519689	312448.990338232	7670731.96344927	40	K	1327.32	315.96	NA	NA	NA	NA	NA	Jul-31st-2024-10-12AM-Flight-Airdata	RGB	2	3
20240731007A	2024-07-31 06:26:20.800000	23313	77.6	252.9	-70.5	0	NA	-21.0546122031724	55.1951766273852	312471.997677944	7670746.92109832	40	K	1504.77	248.15	NA	NA	NA	NA	NA	Jul-31st-2024-10-12AM-Flight-Airdata	RGB	1	1
20240731007A	2024-07-31 06:26:26.800000	23488	77.6	255.6	-87.9	0	NA	-21.0546666077375	55.1950540006972	312459.321342804	7670740.75344628	40	K	1527.86	181.78	NA	NA	NA	NA	NA	Jul-31st-2024-10-12AM-Flight-Airdata	RGB	1	2
20240731007A	2024-07-31 06:26:32	23645	77.5	275.4	-90	0	NA	-21.0546514975232	55.1951515809363	312469.443863588	7670742.54117677	40	K	1496.12	363.57	NA	NA	NA	NA	NA	Jul-31st-2024-10-12AM-Flight-Airdata	RGB	1	3
20240731007A	2024-07-31 06:26:37	23794	77.6	275.4	-89.9	0	NA	-21.054637622843	55.1951175660683	312465.89132693	7670744.03728422	40	K	1510.54	315.96	NA	NA	NA	NA	NA	Jul-31st-2024-10-12AM-Flight-Airdata	RGB	1	4
20240731007A	2024-07-31 06:26:45	24033	77.7	275.4	-90	0	NA	-21.0546226336857	55.1950740690936	312461.351922385	7670745.64562312	40	K	1526.41	248.15	NA	NA	NA	NA	NA	Jul-31st-2024-10-12AM-Flight-Airdata	RGB	1	5
20240731007A	2024-07-31 06:26:52	24244	77.7	264.9	-90	0	NA	-21.0546102327102	55.194977245148	312451.273516624	7670746.90466485	40	K	1549.5	209.2	NA	NA	NA	NA	NA	Jul-31st-2024-10-12AM-Flight-Airdata	RGB	1	6
20240731007A	2024-07-31 06:26:55	24335	77.7	264.9	-89.9	0	NA	-21.0546135936387	55.1949572939228	312449.204209012	7670746.50908545	40	K	1543.73	184.67	NA	NA	NA	NA	NA	Jul-31st-2024-10-12AM-Flight-Airdata	RGB	2	1
20240731007A	2024-07-31 06:27:02.400000	24556	77.6	264.9	-89.9	0	NA	-21.0546123608038	55.1949122036904	312444.516459181	7670746.592521	40	K	1558.15	278.45	NA	NA	NA	NA	NA	Jul-31st-2024-10-12AM-Flight-Airdata	RGB	2	2
20240731007A	2024-07-31 06:27:07.800000	24721	77.1	266.2	-90	0	NA	-21.0546152787492	55.1948927871348	312442.502164352	7670746.24661453	40	K	1555.27	310.19	NA	NA	NA	NA	NA	Jul-31st-2024-10-12AM-Flight-Airdata	RGB	2	3
20240731007A	2024-07-31 06:27:12.200000	24854	77.4	265.4	-90	0	NA	-21.0546113309016	55.1948609935765	312439.192927444	7670746.64628616	40	K	1562.48	272.68	NA	NA	NA	NA	NA	Jul-31st-2024-10-12AM-Flight-Airdata	RGB	2	4
20240731007A	2024-07-31 06:27:14.800000	24930	77.5	262.7	-88.3	0	NA	-21.0546081124348	55.1947938504566	312432.210742739	7670746.92360587	40	K	1497.56	235.17	NA	NA	NA	NA	NA	Jul-31st-2024-10-12AM-Flight-Airdata	RGB	2	5
20240731007A	2024-07-31 06:27:17.400000	25004	77.5	262.7	-70.2	0	NA	-21.0545976659739	55.1948009290588	312432.933322591	7670748.08851041	40	K	1494.67	601.62	NA	NA	NA	NA	NA	Jul-31st-2024-10-12AM-Flight-Airdata	RGB	2	6
20240805005A	2024-08-05 12:56:03.900000	15429	81.6	180.3	-89.9	0	NA	-21.2074109472607	55.2782889464066	321292.983909111	7653925.84366228	40	K	1401.34	357.18	NA	NA	NA	NA	NA	Aug-5th-2024-04-46PM-Flight-Airdata	RGB	1	1
20240805005A	2024-08-05 12:56:10.700000	15637	81.6	175.6	-90	0	NA	-21.2075258976676	55.2783577621646	321300.266696767	7653913.19488832	40	K	1409.98	388.86	NA	NA	NA	NA	NA	Aug-5th-2024-04-46PM-Flight-Airdata	RGB	1	2
20240805005A	2024-08-05 12:56:17.100000	15826	81.7	156.9	-90	0	NA	-21.2076765968324	55.2784114914886	321306.026245211	7653896.57124422	40	K	1464.71	309.65	NA	NA	NA	NA	NA	Aug-5th-2024-04-46PM-Flight-Airdata	RGB	1	3
20240805005A	2024-08-05 12:56:28.900000	16183	81.4	156.9	-90	0	NA	-21.2077806315479	55.2785617758461	321321.753871107	7653885.22292828	40	K	1412.86	446.47	NA	NA	NA	NA	NA	Aug-5th-2024-04-46PM-Flight-Airdata	RGB	1	4
20240805005A	2024-08-05 12:56:41.500000	16561	81.6	185.2	-89.9	0	NA	-21.2077541273452	55.2785858166587	321324.217865367	7653888.18441252	40	K	1381.17	352.85	NA	NA	NA	NA	NA	Aug-5th-2024-04-46PM-Flight-Airdata	RGB	1	5
20240805006J	2024-08-05 12:54:48.100000	13159	81.9	151.2	-84	0	NA	-21.2067536832188	55.2775672971118	321217.271139404	7653997.79625544	40	K	1470.47	460.87	NA	NA	NA	NA	NA	Aug-5th-2024-04-46PM-Flight-Airdata	RGB	1	1
20240805006J	2024-08-05 12:54:57.100000	13432	82.1	173.6	-89.9	0	NA	-21.206725281646	55.2776943676247	321230.4293836	7654001.08416786	40	K	1526.64	469.51	NA	NA	NA	NA	NA	Aug-5th-2024-04-46PM-Flight-Airdata	RGB	1	2
20240805006J	2024-08-05 12:55:05.700000	13687	82.1	175.8	-89.9	0	NA	-21.2068305681362	55.2776921078649	321230.321564423	7653989.42507327	40	K	1538.16	298.13	NA	NA	NA	NA	NA	Aug-5th-2024-04-46PM-Flight-Airdata	RGB	1	3
20240805006J	2024-08-05 12:55:15.100000	13970	81.9	175.8	-90	0	NA	-21.2069189706515	55.2778484460491	321246.659014962	7653979.8143381	40	K	1506.47	499.76	NA	NA	NA	NA	NA	Aug-5th-2024-04-46PM-Flight-Airdata	RGB	1	4
20240805006J	2024-08-05 12:55:24.700000	14257	81.9	168.7	-89.9	0	NA	-21.2070724990993	55.2779395474252	321256.301996215	7653962.91966847	40	K	1450.31	403.26	NA	NA	NA	NA	NA	Aug-5th-2024-04-46PM-Flight-Airdata	RGB	1	5
20240805006J	2024-08-05 12:55:37.100000	14628	81.8	153.6	-90	0	NA	-21.2072761229536	55.2781378711062	321277.13704069	7653940.59985732	40	K	1389.82	391.74	NA	NA	NA	NA	NA	Aug-5th-2024-04-46PM-Flight-Airdata	RGB	1	6
20240805006J	2024-08-05 12:55:44.700000	14854	81.8	145.6	-89.9	0	NA	-21.2074119764158	55.2782075128109	321284.530761077	7653925.63779004	40	K	1422.94	358.62	NA	NA	NA	NA	NA	Aug-5th-2024-04-46PM-Flight-Airdata	RGB	1	7
20240805006J	2024-08-05 12:55:54.900000	15162	81.8	171.9	-89.9	0	NA	-21.2073323842236	55.2782633921802	321290.236305823	7653934.5127321	40	K	1402.78	433.51	NA	NA	NA	NA	NA	Aug-5th-2024-04-46PM-Flight-Airdata	RGB	1	8
