name	time	frame	height	yaw	pitch	roll	length	lat	lon	east	north	zone.number	zone.letter	image_x	image_y	start_east	start_north	end_east	end_north	heading	project	sensor	event	printID	age_class
20240811001A	2024-08-11 05:26:43.800000	293	79.8	138.3	-74	0	12.6370118858183	-20.970448612047	55.1751817581672	310287.481146117	7680041.42933748	40	K	1694.425	265.72	310286.80876487	7680047.71196598	310288.153527364	7680035.14670899	173.891326485297	Aug-11th-2024-09-23AM-Flight-Airdata	RGB	1	1	adult
20240811001A	2024-08-11 05:26:49.600000	468	80.1	139.4	-90	0	11.9812849898894	-20.9705935396409	55.1751906553832	310288.589312145	7680025.3943145	40	K	1764.69	295.615	310288.082120986	7680031.36344799	310289.096503305	7680019.42518101	175.143301885005	Aug-11th-2024-09-23AM-Flight-Airdata	RGB	1	2	adult
20240811001A	2024-08-11 05:27:12.200000	1142	80	122.4	-89.9	0	11.3297762596861	-20.97096937874	55.1751977620521	310289.80278567	7679983.79193734	40	K	1842.235	416.775	310289.927734101	7679989.45544733	310289.677837239	7679978.12842735	-178.736144789595	Aug-11th-2024-09-23AM-Flight-Airdata	RGB	1	3	adult
20240811001A	2024-08-11 05:27:19.800000	1371	80.1	121.8	-89.9	0	11.0552925120808	-20.9710683451888	55.1751294472121	310282.823777114	7679972.75392097	40	K	1705.155	491.54	310283.582233097	7679978.22928558	310282.065321132	7679967.27855636	-172.113487089417	Aug-11th-2024-09-23AM-Flight-Airdata	RGB	1	4	adult
20240811001A	2024-08-11 05:27:36	1857	80	121.8	-89.9	0	10.6618960113791	-20.9712783203328	55.1750299608884	310272.743463514	7679949.38867325	40	K	1575.69	588.455	310273.511617005	7679954.6639881	310271.975310022	7679944.11335839	-171.715226599123	Aug-11th-2024-09-23AM-Flight-Airdata	RGB	1	5	adult
20240811001A	2024-08-11 05:27:55.600000	2445	80.1	134.5	-89.9	0	10.8777432315411	-20.9714820823121	55.1748742370011	310256.807301715	7679926.64460936	40	K	1515.465	553.15	310257.224145706	7679932.06748364	310256.390457724	7679921.22173507	-175.604447631068	Aug-11th-2024-09-23AM-Flight-Airdata	RGB	1	6	adult
20240811001A	2024-08-11 05:28:05	2729	80.2	124.5	-90	0	10.5295670599134	-20.9716393528219	55.1748999366381	310259.678335134	7679909.26297272	40	K	1658.775	531.005	310260.240872604	7679914.49761666	310259.115797663	7679904.02832878	-173.866287422675	Aug-11th-2024-09-23AM-Flight-Airdata	RGB	1	7	adult
20240811001A	2024-08-11 05:28:15.400000	3041	80.1	124.5	-89.9	0	10.3389524399808	-20.9718230364173	55.1748872651719	310258.592587909	7679888.91151968	40	K	1712.765	536.535	310256.614189236	7679893.68744086	310260.570986583	7679884.1355985	157.4984911661	Aug-11th-2024-09-23AM-Flight-Airdata	RGB	1	8	adult
20240811001A	2024-08-11 05:32:46.400000	11159	80.3	163.4	-54.2	0	11.2516876092181	-20.9757257171335	55.1751478175291	310290.614421746	7679457.13737057	40	K	1363.84	475.5	310290.389890912	7679462.75873201	310290.838952579	7679451.51600913	177.712683237717	Aug-11th-2024-09-23AM-Flight-Airdata	RGB	2	1	adult
20240811001A	2024-08-11 05:33:03.600000	11675	79.7	138.4	-89.9	0	8.6352195987067	-20.9761416256203	55.1752544912624	310302.232051251	7679411.2167931	40	K	1597.845	207.695	310301.330121271	7679415.4391475	310303.133981231	7679406.9944387	167.942356619164	Aug-11th-2024-09-23AM-Flight-Airdata	RGB	2	2	adult
20240811001A	2024-08-11 05:33:19.200000	12142	78.8	118	-90	0	11.6679675557945	-20.9764470994648	55.1753172954508	310309.14843527	7679377.4708988	40	K	1524.465	362.77	310307.47958589	7679383.06109633	310310.81728465	7679371.88070126	163.377984890139	Aug-11th-2024-09-23AM-Flight-Airdata	RGB	2	3	adult
20240811001A	2024-08-11 05:33:30.200000	12471	77.5	114.1	-90	0	10.521319756045	-20.9766340618112	55.1753595041084	310313.773548096	7679356.82151655	40	K	1606.155	395.305	310312.437301567	7679361.90963876	310315.109794625	7679351.73339435	165.285223197123	Aug-11th-2024-09-23AM-Flight-Airdata	RGB	2	4	adult
20240811001A	2024-08-11 05:33:43.200000	12866	77	113.7	-90	0	9.71868652533853	-20.9768754879636	55.1753159526507	310309.549713978	7679330.04050004	40	K	1483.61	497.075	310309.753313024	7679334.89557618	310309.346114932	7679325.18542389	-177.598691598374	Aug-11th-2024-09-23AM-Flight-Airdata	RGB	2	5	adult
20240811002A	2024-08-11 05:26:42	241	79.8	135.4	-54.5	0	12.6499852532873	-20.9703991018255	55.1752555556184	310295.092751796	7680046.99833254	40	K	1575	471.455	310294.922531287	7680053.32103423	310295.262972306	7680040.67563085	178.457848877247	Aug-11th-2024-09-23AM-Flight-Airdata	RGB	1	1	adult
20240811002A	2024-08-11 05:26:48.200000	426	79.9	139.4	-90	0	12.7807386156682	-20.9705026491368	55.1752512783474	310294.77867629	7680035.52908247	40	K	1611.69	305.305	310293.912278807	7680041.86044688	310295.645073773	7680029.19771806	172.207919720403	Aug-11th-2024-09-23AM-Flight-Airdata	RGB	1	2	adult
20240811002A	2024-08-11 05:26:59.800000	772	80	124	-89.9	0	11.5005211640707	-20.9707276131997	55.1753193548552	310302.141838694	7680010.70303548	40	K	1822.15	295.615	310301.44356367	7680016.41074157	310302.840113718	7680004.9953294	173.025151259713	Aug-11th-2024-09-23AM-Flight-Airdata	RGB	1	3	adult
20240811002A	2024-08-11 05:27:13.800000	1194	80	121.8	-89.9	0	12.0486244660508	-20.9709636936849	55.1752758884931	310297.919851628	7679984.51398913	40	K	1736.31	400.845	310297.667931931	7679990.53303177	310298.171771326	7679978.49494649	177.603353723908	Aug-11th-2024-09-23AM-Flight-Airdata	RGB	1	4	adult
20240811002A	2024-08-11 05:27:22.600000	1455	80.1	121.8	-89.9	0	10.8377847153155	-20.9710823233772	55.1752006338942	310290.244006989	7679971.29074353	40	K	1467.69	365.535	310290.354464883	7679976.70850999	310290.133549095	7679965.87297707	-178.832010483761	Aug-11th-2024-09-23AM-Flight-Airdata	RGB	1	5	adult
20240811002A	2024-08-11 05:27:38.200000	1922	80.1	121.8	-89.9	0	11.0311886650619	-20.9712985027968	55.1751368425743	310283.883375263	7679947.28092498	40	K	1463.54	432	310284.398976945	7679952.77236703	310283.36777358	7679941.78948293	-174.63611815999	Aug-11th-2024-09-23AM-Flight-Airdata	RGB	1	6	adult
20240811002A	2024-08-11 05:27:55	2425	80.1	134.5	-89.9	0	10.6167227950852	-20.9714815565755	55.1749898167895	310268.8255541	7679926.83988423	40	K	1388.08	437.54	310269.445340132	7679932.11193942	310268.205768067	7679921.56782903	-173.295048691253	Aug-11th-2024-09-23AM-Flight-Airdata	RGB	1	7	adult
20240811002A	2024-08-11 05:28:17.600000	3103	80.1	124.5	-90	0	12.1960183810543	-20.9718407579001	55.1749875767561	310269.046144973	7679887.06845843	40	K	1662.235	339.235	310267.753439364	7679893.02787352	310270.338850582	7679881.10904333	167.761112338126	Aug-11th-2024-09-23AM-Flight-Airdata	RGB	1	8	adult
20240811002A	2024-08-11 05:32:42.600000	11044	80.1	163.4	-45.9	0	11.5091971646828	-20.9757098588767	55.1750579952759	310281.254220503	7679458.78657963	40	K	1457.14	459.23	310281.188397661	7679464.54080175	310281.320043344	7679453.03235751	179.344619227358	Aug-11th-2024-09-23AM-Flight-Airdata	RGB	2	1	adult
20240811002A	2024-08-11 05:32:52.200000	11336	80.4	163.4	-69.9	0	12.9629510582889	-20.9758313228733	55.1750885303423	310284.582793406	7679445.37497265	40	K	1462.55	241.96	310283.870738424	7679451.81721627	310285.294848388	7679438.93272904	173.692754034252	Aug-11th-2024-09-23AM-Flight-Airdata	RGB	2	2	adult
20240811002A	2024-08-11 05:33:05	11717	79.8	138.4	-90	0	12.5034441307092	-20.9761516932068	55.1751771703446	310294.204563415	7679410.01046691	40	K	1698.745	270.04	310292.686039323	7679416.07496304	310295.723087507	7679403.94597078	165.942417224044	Aug-11th-2024-09-23AM-Flight-Airdata	RGB	2	3	adult
20240811002A	2024-08-11 05:33:24.400000	12299	78.7	118	-90	0	11.1577931958568	-20.9765296500302	55.1752330771962	310300.495271905	7679368.23147993	40	K	1569.19	570.485	310299.232894671	7679373.66567637	310301.757649139	7679362.79728349	166.92200511752	Aug-11th-2024-09-23AM-Flight-Airdata	RGB	2	4	adult
20240811002A	2024-08-11 05:33:24.600000	12304	78.7	118	-90	0	11.3847609939196	-20.9765337996192	55.1752316041076	310300.347333209	7679367.77031335	40	K	1567.385	571.85	310298.85567424	7679373.26377758	310301.838992178	7679362.27684912	164.808569283305	Aug-11th-2024-09-23AM-Flight-Airdata	RGB	2	5	adult
20240811002A	2024-08-11 05:33:45.400000	12930	76.9	113.7	-89.9	0	9.60890833189	-20.9768910816919	55.1752448597189	310302.176856338	7679328.22973655	40	K	1548	581.535	310301.612082673	7679333.00088007	310302.741630003	7679323.45859302	173.24915186167	Aug-11th-2024-09-23AM-Flight-Airdata	RGB	2	6	adult
20240811001A	2024-08-11 05:26:49.400000	461	80	139.4	-90	0	20.3358121943805	-20.9700111274316	55.1756260262052	310333.127881162	7680090.39188476	40	K	627.015	570.825	310331.238321663	7680100.38267448	310335.017440661	7680080.40109503	169.290143149479	Aug-11th-2024-09-23AM-Flight-Airdata	TIR	1	1	adult
20240811001A	2024-08-11 05:27:05.400000	943	80	124	-89.9	0	13.0335156497199	-20.9702097790853	55.1755454689512	310325.001533066	7680068.3027945	40	K	653.215	636.32	310324.159451996	7680074.76491737	310325.843614137	7680061.84067163	172.575606025376	Aug-11th-2024-09-23AM-Flight-Airdata	TIR	1	2	adult
20240811001A	2024-08-11 05:27:23.600000	1484	80.1	121.8	-89.9	0	13.6267773775899	-20.9704145882856	55.1754359584566	310313.872169544	7680045.49764406	40	K	315.405	625.98	310314.046580671	7680052.30880007	310313.697758417	7680038.68648805	-178.533165562793	Aug-11th-2024-09-23AM-Flight-Airdata	TIR	1	3	adult
20240811001A	2024-08-11 05:27:37	1891	80	121.8	-89.9	0	12.8033469198717	-20.9705990428526	55.1753684209901	310307.081863287	7680024.99579783	40	K	292.66	723.19	310307.718297857	7680031.36575656	310306.445428717	7680018.62583911	-174.294405660203	Aug-11th-2024-09-23AM-Flight-Airdata	TIR	1	4	adult
20240811001A	2024-08-11 05:27:45	2128	80.1	121.8	-90	0	10.9895812505443	-20.9708085024853	55.1753124412894	310301.525015444	7680001.73922955	40	K	429.84	664.59	310302.741475641	7680007.09767602	310300.308555248	7679996.38078307	-167.209649320072	Aug-11th-2024-09-23AM-Flight-Airdata	TIR	1	5	adult
20240811001A	2024-08-11 05:28:02.600000	2654	80.2	125.7	-90	0	9.63325408501629	-20.9710173181642	55.175266873403	310297.050080742	7679978.56629769	40	K	495.335	657.01	310297.278515158	7679983.37750479	310296.821646326	7679973.75509059	-177.281658042659	Aug-11th-2024-09-23AM-Flight-Airdata	TIR	1	6	adult
20240811001A	2024-08-11 05:28:23.200000	3273	80.1	124.9	-89.9	0	6.40356666655147	-20.9712681216361	55.1752091798405	310291.367240633	7679950.73033155	40	K	688.375	583.925	310291.269782679	7679953.9306313	310291.464698586	7679947.53003181	178.255724561106	Aug-11th-2024-09-23AM-Flight-Airdata	TIR	1	7	adult
20240811001A	2024-08-11 05:28:23.800000	3293	80.1	124.9	-89.9	0	12.0505615364434	-20.9713563361113	55.17524554203	310295.25984058	7679941.006833	40	K	771.1	465.35	310292.346952975	7679946.28121393	310298.172728185	7679935.73245208	151.089403051185	Aug-11th-2024-09-23AM-Flight-Airdata	TIR	1	8	adult
20240811001A	2024-08-11 05:32:46.400000	11159	80.3	163.4	-54.2	0	14.3792648592142	-20.9754508917775	55.1758864700741	310367.0763793	7679488.44034919	40	K	375.18	547.29	310363.383427809	7679494.60905438	310370.76933079	7679482.271644	149.092768058817	Aug-11th-2024-09-23AM-Flight-Airdata	TIR	2	1	adult
20240811001A	2024-08-11 05:33:05.400000	11731	79.8	138.4	-90	0	17.3598638593067	-20.9756749221049	55.1756959244328	310347.545242837	7679463.41105666	40	K	564.285	339.88	310345.105191115	7679471.74096457	310349.98529456	7679455.08114874	163.673287843767	Aug-11th-2024-09-23AM-Flight-Airdata	TIR	2	2	adult
20240811001A	2024-08-11 05:33:23	12258	78.6	118	-89.9	0	9.4050456828783	-20.9758859865565	55.1755585210459	310333.52379321	7679439.88025827	40	K	402.96	625.29	310331.958933671	7679444.31477467	310335.088652749	7679435.44574187	160.562997195909	Aug-11th-2024-09-23AM-Flight-Airdata	TIR	2	3	adult
20240811001A	2024-08-11 05:33:33.600000	12573	77	113.7	-89.9	0	10.4599454145749	-20.9761091397213	55.1756011479982	310338.238069398	7679415.22452097	40	K	621.5	416.4	310336.67574029	7679420.21568739	310339.800398506	7679410.23335454	162.618896974875	Aug-11th-2024-09-23AM-Flight-Airdata	TIR	2	4	adult
20240811001A	2024-08-11 05:33:51	13099	76.9	113.7	-89.9	0	15.9703616823111	-20.9763709605549	55.1755414305936	310332.358909946	7679386.1663618	40	K	365.045	563.25	310332.16455208	7679394.14917697	310332.553267811	7679378.18354663	178.605293298662	Aug-11th-2024-09-23AM-Flight-Airdata	TIR	2	5	adult
20240811002A	2024-08-11 05:26:47.600000	409	79.8	139.4	-90	0	16.715771859212	-20.9698488935027	55.1756646379436	310336.938334218	7680108.39928299	40	K	420.88	668.035	310335.084783942	7680116.54904425	310338.791884493	7680100.24952174	167.186831035035	Aug-11th-2024-09-23AM-Flight-Airdata	TIR	1	1	adult
20240811002A	2024-08-11 05:26:50.600000	496	80.1	139.4	-89.9	0	15.1974157070733	-20.9700412400043	55.1757043538628	310341.311100773	7680087.15083762	40	K	565.66	470.865	310339.923043052	7680094.62169144	310342.699158494	7680079.6799838	169.474667984636	Aug-11th-2024-09-23AM-Flight-Airdata	TIR	1	2	adult
20240811002A	2024-08-11 05:27:04.400000	912	80	124	-90	0	12.4648515691077	-20.9701766976185	55.1756201383481	310332.724569986	7680072.05390451	40	K	583.58	571.52	310331.67829911	7680078.1978811	310333.770840862	7680065.90992791	170.335687657522	Aug-11th-2024-09-23AM-Flight-Airdata	TIR	1	3	adult
20240811002A	2024-08-11 05:27:18	1319	80.1	121.8	-89.9	0	12.8430200866368	-20.9703852734725	55.1755705928042	310327.835629398	7680048.90282436	40	K	476.035	541.185	310327.081414494	7680055.27988882	310328.589844302	7680042.5257599	173.254965614945	Aug-11th-2024-09-23AM-Flight-Airdata	TIR	1	4	adult
20240811002A	2024-08-11 05:27:28.400000	1629	80.1	121.8	-89.9	0	10.0700683708649	-20.9705691852568	55.1755238100865	310323.202877907	7680028.48568393	40	K	423.645	492.235	310323.087640153	7680033.51939921	310323.318115661	7680023.45196865	178.688546434049	Aug-11th-2024-09-23AM-Flight-Airdata	TIR	1	5	adult
20240811002A	2024-08-11 05:27:55.800000	2453	80.1	134.5	-89.9	0	20.0181006215119	-20.9708560615284	55.1754459577147	310315.469217809	7679996.63205538	40	K	156.835	646.665	310315.642345267	7680006.63960827	310315.296090352	7679986.62450248	-179.008900243317	Aug-11th-2024-09-23AM-Flight-Airdata	TIR	1	6	adult
20240811002A	2024-08-11 05:28:05	2728	80.2	124.5	-90	0	12.1924183588414	-20.9710160945219	55.1753890461989	310309.753083535	7679978.84662545	40	K	374.005	505.34	310309.687152986	7679984.9424781	310309.819014083	7679972.7507728	179.380333630702	Aug-11th-2024-09-23AM-Flight-Airdata	TIR	1	7	adult
20240811002A	2024-08-11 05:28:29	3449	80.1	124.9	-89.9	0	16.5531061773194	-20.9714020585196	55.1753062030656	310301.625585706	7679936.01662865	40	K	563.595	464.66	310300.193097077	7679944.16827311	310303.058074336	7679927.8649842	170.033175450308	Aug-11th-2024-09-23AM-Flight-Airdata	TIR	1	8	adult
20240811002A	2024-08-11 05:32:42.600000	11044	80.1	163.4	-45.9	0	16.0275514025212	-20.9753014205225	55.1758304877939	310361.066380568	7679504.92260752	40	K	500.49	609.93	310356.652544494	7679511.61130336	310365.480216643	7679498.23391167	146.57938483089	Aug-11th-2024-09-23AM-Flight-Airdata	TIR	2	1	adult
20240811002A	2024-08-11 05:32:52.200000	11336	80.4	163.4	-69.9	0	13.6679143856808	-20.9755165721609	55.1757432746353	310352.269073016	7679480.99882035	40	K	486.08	396.78	310349.420969809	7679487.21100829	310355.117176222	7679474.78663241	155.36995382592	Aug-11th-2024-09-23AM-Flight-Airdata	TIR	2	2	adult
20240811002A	2024-08-11 05:33:05	11717	79.8	138.4	-90	0	14.3725673551581	-20.9756731322598	55.1756051739167	310338.106281102	7679463.50162052	40	K	670.425	421.265	310336.287718187	7679470.45399436	310339.924844018	7679456.54924668	165.341322383234	Aug-11th-2024-09-23AM-Flight-Airdata	TIR	2	3	adult
20240811002A	2024-08-11 05:33:24.400000	12299	78.7	118	-90	0	11.1079427303733	-20.9758550960088	55.1754609311925	310323.336915665	7679443.18457169	40	K	393.39	777.34	310322.03330784	7679448.5833868	310324.640523489	7679437.78575658	166.425097489102	Aug-11th-2024-09-23AM-Flight-Airdata	TIR	2	4	adult
20240811002A	2024-08-11 05:33:39	12738	76.9	113.7	-90	0	16.850676789193	-20.9760768821994	55.1754731539322	310324.887904766	7679418.64412754	40	K	443.635	693.54	310322.221480463	7679426.6364056	310327.554329069	7679410.65184949	161.5500088843	Aug-11th-2024-09-23AM-Flight-Airdata	TIR	2	5	adult
20240811002A	2024-08-11 05:33:54.200000	13195	77	113.7	-89.9	0	15.6435038953201	-20.9763498704563	55.1754275901573	310320.494626321	7679388.3663505	40	K	245.775	728.015	310319.348179632	7679396.10362803	310321.64107301	7679380.62907298	171.571702395772	Aug-11th-2024-09-23AM-Flight-Airdata	TIR	2	6	adult
20240814001A	2024-08-14 05:12:13.400000	342	77.2	310.1	-43.7	0	8.66549449311399	-21.0461199455908	55.1806139264511	310947.7717203	7671669.93947948	40	K	1469.375	571.67	310943.503438127	7671670.68410422	310952.040002473	7671669.19485474	99.8959648293965	Aug-14th-2024-09-09AM-Flight-Airdata	RGB	1	1	adult
20240814001A	2024-08-14 05:12:35	990	77.8	35	-87.9	0	11.1781832148597	-21.0464758679754	55.1808784547774	310975.715195432	7671630.84713661	40	K	1556.325	366.62	310970.220019808	7671631.86742571	310981.210371056	7671629.82684751	100.518329952077	Aug-14th-2024-09-09AM-Flight-Airdata	RGB	1	2	adult
20240814001A	2024-08-14 05:12:37.600000	1064	77.9	35	-87.9	0	10.8967636413346	-21.046487351153	55.180913071883	310979.327650806	7671629.61681413	40	K	1592.545	457.19	310974.04463486	7671630.94895789	310984.610666751	7671628.28467038	104.152443379303	Aug-14th-2024-09-09AM-Flight-Airdata	RGB	1	3	adult
20240814002A	2024-08-14 05:12:23.600000	648	77.8	313.9	-66.8	0	10.0827750394067	-21.0459857489398	55.1806211891922	310948.35709431	7671684.80567792	40	K	1579.505	529.64	310943.773718815	7671686.90526293	310952.940469805	7671682.70609292	114.611902863113	Aug-14th-2024-09-09AM-Flight-Airdata	RGB	1	1	adult
20240814002A	2024-08-14 05:12:37.400000	1060	77.9	35	-87.9	0	9.31970540478775	-21.0463798364814	55.1807999967326	310967.439325271	7671641.38625348	40	K	1345.475	397.78	310962.854042848	7671642.21656205	310972.024607693	7671640.55594492	100.26396793179	Aug-14th-2024-09-09AM-Flight-Airdata	RGB	1	2	adult
20240814002A	2024-08-14 05:12:52	1500	77.7	39.4	-90	0	9.39982280477224	-21.0464022229362	55.180951247987	310983.188015381	7671639.08704317	40	K	1512.85	464.43	310978.753475295	7671640.64397009	310987.622555467	7671637.53011626	109.345712902296	Aug-14th-2024-09-09AM-Flight-Airdata	RGB	1	3	adult
20240814002A	2024-08-14 05:13:03.800000	1851	78	57.7	-89.9	0	8.05804104603521	-21.0464730102178	55.1809838789789	310986.668929152	7671631.28850915	40	K	1581.675	326.77	310982.775847916	7671632.32625905	310990.562010388	7671630.25075924	104.925850974034	Aug-14th-2024-09-09AM-Flight-Airdata	RGB	1	4	adult
20240814003A	2024-08-14 05:13:28.600000	2594	77.4	285	-59.9	0	11.688910134032	-21.0459501201869	55.1805665505692	310942.633170012	7671688.6855342	40	K	1395.47	638.325	310937.854935156	7671692.05096532	310947.411404869	7671685.32010307	125.15800099033	Aug-14th-2024-09-09AM-Flight-Airdata	RGB	1	1	adult
20240814003A	2024-08-14 05:13:56	3417	77.3	35.8	-78.3	0	9.95867971903614	-21.0464555210025	55.1810105802448	310989.422060917	7671633.25648012	40	K	1745.42	462.985	310984.863101971	7671635.25890833	310993.981019863	7671631.2540519	113.712487098954	Aug-14th-2024-09-09AM-Flight-Airdata	RGB	1	2	adult
20240814003A	2024-08-14 05:14:12.800000	3918	77.3	106.4	-84.6	0	9.76041362744737	-21.0466955021335	55.1809027189254	310978.514462586	7671606.55909852	40	K	1606.315	555	310974.449772687	7671609.25997144	310982.579152485	7671603.85822559	123.602927947531	Aug-14th-2024-09-09AM-Flight-Airdata	RGB	1	3	adult
20240814003A	2024-08-14 05:14:26	4317	77.3	63.2	-84.6	0	9.93457273250207	-21.046796263334	55.181280245947	311017.880168576	7671595.8508268	40	K	1512.125	632.525	311013.859412936	7671598.76758149	311021.900924216	7671592.93407211	125.958051396318	Aug-14th-2024-09-09AM-Flight-Airdata	RGB	1	4	adult
20240814004A	2024-08-14 05:14:04.400000	3667	77.2	42.1	-89.9	0	11.2230145597841	-21.0464912176448	55.1811685474363	311005.885569951	7671629.4915725	40	K	1822.95	431.105	311000.979765747	7671632.21592547	311010.791374156	7671626.76721954	119.044841215358	Aug-14th-2024-09-09AM-Flight-Airdata	RGB	1	1	adult
20240814004A	2024-08-14 05:14:21.200000	4174	77.4	57.9	-84.6	0	9.99465776875579	-21.0467375720436	55.1813082737438	311020.719152009	7671602.38205343	40	K	1457.785	597.75	311016.797334732	7671605.47925301	311024.640969286	7671599.28485386	128.299414460407	Aug-14th-2024-09-09AM-Flight-Airdata	RGB	1	2	adult
20240814004A	2024-08-14 05:14:32.600000	4516	77.3	68.7	-84.6	0	8.56142661457737	-21.0468397413069	55.1813713040412	311027.399227672	7671591.14508577	40	K	1593.275	477.475	311023.899550606	7671593.61019568	311030.898904738	7671588.67997587	125.160181072132	Aug-14th-2024-09-09AM-Flight-Airdata	RGB	1	3	adult
20240814012A	2024-08-14 05:20:24.600000	15063	72.7	136.6	-44.2	0	10.1131483022433	-21.0484153958401	55.1852014741226	311427.474558451	7671421.2314123	40	K	1290.405	502.84	311423.939038344	7671424.84652498	311431.010078558	7671417.61629961	135.637724040985	Aug-14th-2024-09-09AM-Flight-Airdata	RGB	1	1	adult
20240814012A	2024-08-14 05:20:39	15492	72.7	132.3	-37.7	0	9.10840834711353	-21.0485320101442	55.1853417761856	311442.203655518	7671408.48641406	40	K	1307.8	523.125	311439.220031353	7671411.92716434	311445.187279682	7671405.04566378	139.070019371596	Aug-14th-2024-09-09AM-Flight-Airdata	RGB	1	2	adult
20240814012A	2024-08-14 05:20:57.600000	16052	72.5	123.7	-41.1	0	8.66456980962639	-21.0486751346475	55.1855417207698	311463.16501231	7671392.87686301	40	K	1404.89	360.82	311459.752421324	7671395.54574204	311466.577603297	7671390.20798398	128.027833585153	Aug-14th-2024-09-09AM-Flight-Airdata	RGB	1	3	adult
20240814013A	2024-08-14 05:20:12.400000	14695	72.5	135.1	-42	0	8.63735781555743	-21.0485115918141	55.1850399959894	311410.812666454	7671410.39008991	40	K	1507.05	418.06	311407.734864548	7671413.41963162	311413.89046836	7671407.36054821	134.547258426826	Aug-14th-2024-09-09AM-Flight-Airdata	RGB	1	1	adult
20240814013A	2024-08-14 05:21:14.400000	16557	72.3	127.9	-36.1	0	9.97564376403456	-21.0489341139366	55.1855821359519	311467.691754878	7671364.25180386	40	K	1430.245	366.62	311463.173132708	7671366.3637747	311472.210377048	7671362.13983302	115.051041572219	Aug-14th-2024-09-09AM-Flight-Airdata	RGB	1	2	adult
20240814014A	2024-08-14 05:21:54.200000	17748	71.2	221	-45.8	0	8.54800830656318	-21.0501933789382	55.1806672379224	310958.457684465	7671219.01226501	40	K	1433.875	421.68	310957.180601839	7671223.09101132	310959.73476709	7671214.9335187	162.614314328183	Aug-14th-2024-09-09AM-Flight-Airdata	RGB	1	1	adult
20240814014A	2024-08-14 05:22:13.600000	18328	70.6	250.2	-83.7	0	7.7432013451376	-21.0502859629023	55.1808826510784	310980.963190921	7671209.01724607	40	K	1054.21	684.695	310978.780675162	7671212.2150448	310983.145706681	7671205.81944734	145.686241944387	Aug-14th-2024-09-09AM-Flight-Airdata	RGB	1	2	adult
20240814001A	2024-08-14 05:12:13.400000	342	77.2	310.1	-43.7	0	8.74843997384594	-21.046715588163	55.1798890078907	310873.179167196	7671603.13319719	40	K	415.16	478.925	310868.831681188	7671602.65032464	310877.526653204	7671603.61606975	83.6621703825758	Aug-14th-2024-09-09AM-Flight-Airdata	TIR	1	1	adult
20240814001A	2024-08-14 05:12:35	990	77.8	35	-87.9	0	8.7170883200219	-21.0461305070636	55.1802462974595	310909.57517199	7671668.33424293	40	K	389.805	466.61	310905.235791728	7671668.74251507	310913.914552251	7671667.92597079	95.3748716082982	Aug-14th-2024-09-09AM-Flight-Airdata	TIR	1	2	adult
20240814001A	2024-08-14 05:12:45.200000	1295	77.9	35	-90	0	13.2338242179278	-21.0461386730928	55.1804535908184	310931.130729892	7671667.67595329	40	K	602.82	596.3	310924.611822316	7671668.81057652	310937.649637468	7671666.54133006	99.873486270822	Aug-14th-2024-09-09AM-Flight-Airdata	TIR	1	3	adult
20240814002A	2024-08-14 05:12:23.600000	648	77.8	313.9	-66.8	0	9.78935666244034	-21.0464127295449	55.1800984253696	310894.562481135	7671636.91259567	40	K	573.115	465.16	310889.762605484	7671637.8712769	310899.362356785	7671635.95391443	101.295080570569	Aug-14th-2024-09-09AM-Flight-Airdata	TIR	1	1	adult
20240814002A	2024-08-14 05:12:38.600000	1098	77.9	35	-87.9	0	9.10525654760047	-21.0460527138053	55.18028169919	310913.156417515	7671676.98910985	40	K	315.9	554.28	310908.676492876	7671677.79947979	310917.636342153	7671676.17873991	100.253313991575	Aug-14th-2024-09-09AM-Flight-Airdata	TIR	1	2	adult
20240814002A	2024-08-14 05:12:52	1500	77.7	39.4	-90	0	8.92388323055987	-21.0460329454997	55.1804465711875	310930.267593837	7671679.37326516	40	K	481.1	498.485	310926.022231011	7671680.74651585	310934.512956662	7671678.00001447	107.924877026801	Aug-14th-2024-09-09AM-Flight-Airdata	TIR	1	3	adult
20240814002A	2024-08-14 05:13:08.200000	1987	78	57.7	-90	0	8.67039014430266	-21.0459851442297	55.1806568168265	310952.059327693	7671684.91486943	40	K	595.57	334.745	310947.805331144	7671685.74999198	310956.313324242	7671684.07974688	101.106764852712	Aug-14th-2024-09-09AM-Flight-Airdata	TIR	1	4	adult
20240814003A	2024-08-14 05:13:35.600000	2807	77.3	289.6	-71.1	0	13.8620052178682	-21.0465270555665	55.1803469037559	310920.532699193	7671624.54965833	40	K	366.62	460.085	310913.997612348	7671626.85864882	310927.067786037	7671622.24066784	109.459439351004	Aug-14th-2024-09-09AM-Flight-Airdata	TIR	1	1	adult
20240814003A	2024-08-14 05:14:01	3568	77.3	42.1	-87.9	0	9.98376830944067	-21.046098104429	55.1805727581889	310943.465270227	7671672.30881301	40	K	708.6	403.575	310938.614932424	7671673.48912255	310948.31560803	7671671.12850347	103.676857131928	Aug-14th-2024-09-09AM-Flight-Airdata	TIR	1	2	adult
20240814003A	2024-08-14 05:14:18	4074	77.2	57.9	-84.6	0	7.38594438554599	-21.0462411017866	55.1808536715842	310972.842867179	7671656.80990216	40	K	494.865	803.525	310969.273445652	7671657.75714741	310976.412288707	7671655.8626569	104.862451513081	Aug-14th-2024-09-09AM-Flight-Airdata	TIR	1	3	adult
20240814003A	2024-08-14 05:14:32.800000	4522	77.3	68.7	-84.6	0	12.277271429601	-21.0462930743474	55.1810340750631	310991.658890948	7671651.26961602	40	K	523.845	639.045	310986.407412675	7671654.44842466	310996.910369221	7671648.09080737	121.187228962539	Aug-14th-2024-09-09AM-Flight-Airdata	TIR	1	4	adult
20240814004A	2024-08-14 05:14:04.400000	3667	77.2	42.1	-89.9	0	11.5693582151968	-21.0460829024364	55.1806608159357	310952.598442298	7671674.09630739	40	K	744.83	469.505	310947.431153251	7671676.69662204	310957.765731345	7671671.49599274	116.71273323909	Aug-14th-2024-09-09AM-Flight-Airdata	TIR	1	1	adult
20240814004A	2024-08-14 05:14:21.200000	4174	77.4	57.9	-84.6	0	9.86260966330403	-21.0462188049439	55.1809060100147	310978.254553267	7671659.34054384	40	K	348.51	678.9	310974.204600634	7671662.15402052	310982.304505899	7671656.52706717	124.78746603211	Aug-14th-2024-09-09AM-Flight-Airdata	TIR	1	2	adult
20240814004A	2024-08-14 05:14:32.600000	4516	77.3	68.7	-84.6	0	12.2602070996584	-21.0462768681312	55.181103649763	310998.869734514	7671653.14635852	40	K	541.235	533.995	310993.682739793	7671656.41335336	311004.056729235	7671649.87936368	122.20450767749	Aug-14th-2024-09-09AM-Flight-Airdata	TIR	1	3	adult
20240814012A	2024-08-14 05:20:24.600000	15063	72.7	136.6	-44.2	0	10.9160105172688	-21.0478652332904	55.1857345317964	311482.184530593	7671482.77295072	40	K	342.705	554.275	311476.942978206	7671484.29477527	311487.426082981	7671481.25112617	126.190048427332	Aug-14th-2024-09-09AM-Flight-Airdata	TIR	1	1	adult
20240814012A	2024-08-14 05:20:43.400000	15625	72.6	135.5	-37	0	10.3793154113843	-21.0478916801144	55.1859774855516	311507.469128484	7671480.13214124	40	K	272.425	555.73	311502.464296736	7671481.50480517	311512.473960232	7671478.75947731	135.337238791453	Aug-14th-2024-09-09AM-Flight-Airdata	TIR	1	2	adult
20240814012A	2024-08-14 05:21:03.800000	16237	72.4	127.9	-41.1	0	12.2688377699293	-21.0478849974057	55.1861588061516	311526.306185568	7671481.08636764	40	K	358.645	366.615	311520.194354152	7671481.6123066	311532.418016985	7671480.56042868	124.918334300562	Aug-14th-2024-09-09AM-Flight-Airdata	TIR	1	3	adult
20240814013A	2024-08-14 05:20:12.400000	14695	72.5	135.1	-42	0	13.3207230395504	-21.047886943469	55.1856978460552	311478.398958877	7671480.32593491	40	K	555.725	427.48	311471.956614054	7671482.01608542	311484.841303701	7671478.6357844	122.700274458234	Aug-14th-2024-09-09AM-Flight-Airdata	TIR	1	1	adult
20240814013A	2024-08-14 05:21:14.400000	16557	72.3	127.9	-36.1	0	12.3497492740615	-21.0480521558348	55.1863580906105	311547.229189947	7671462.81501894	40	K	460.08	360.095	311541.082881357	7671462.22175045	311553.375498536	7671463.40828744	112.4866418632	Aug-14th-2024-09-09AM-Flight-Airdata	TIR	1	2	adult
20240814014A	2024-08-14 05:21:59	17895	70.3	221	-83.9	0	15.3224397591074	-21.05045145497	55.1810247044198	310995.936239535	7671190.86320093	40	K	681.065	520.225	310992.410365589	7671197.66485535	310999.46211348	7671184.0615465	158.598465143332	Aug-14th-2024-09-09AM-Flight-Airdata	TIR	1	1	adult
20240814014A	2024-08-14 05:22:17.800000	18458	70.8	240.3	-83.7	0	13.5005614555678	-21.0507237900803	55.1810966249449	311003.755085069	7671160.79686584	40	K	149.98	630.35	311000.146825209	7671166.5018418	311007.363344929	7671155.09188988	147.68763279658	Aug-14th-2024-09-09AM-Flight-Airdata	TIR	1	2	adult
20240814015A	2024-08-14 05:45:36.100000	8870	74.5	160.6	-90	0	9.31248066110528	-21.045791098112	55.1834905018715	311246.336619805	7671709.75570155	40	K	1188.14	488.465	311242.003321425	7671711.45954989	311250.669918184	7671708.05185321	111.464699661155	Aug-14th-2024-09-40AM-Flight-Airdata	RGB	1	1	adult
20240814015A	2024-08-14 05:46:03.500000	9693	74.5	176.6	-89.9	0	7.84189340017186	-21.0457879506201	55.1837610741553	311274.454879339	7671710.42444322	40	K	1123.17	345.54	311271.817655579	7671713.32597279	311277.092103099	7671707.52291364	137.73204594717	Aug-14th-2024-09-40AM-Flight-Airdata	RGB	1	2	adult
20240814015A	2024-08-14 05:45:42.900000	9072	74.6	152.3	-89.9	0	9.82448262505402	-21.045563134015	55.1840719123223	311306.478790456	7671735.68285563	40	K	268.35	499.91	311302.405073115	7671738.42784047	311310.552507797	7671732.9378708	123.973193326258	Aug-14th-2024-09-40AM-Flight-Airdata	TIR	1	1	adult
20240814015A	2024-08-14 05:46:03.500000	9693	74.5	176.6	-89.9	0	8.4674895618232	-21.0457297894935	55.1843067579608	311331.097811518	7671717.509507	40	K	209.195	408.295	311328.268944494	7671720.6594445	311333.926678542	7671714.3595695	138.07391381754	Aug-14th-2024-09-40AM-Flight-Airdata	TIR	1	2	adult
20240814016A	2024-08-14 07:08:24.800000	19084	67.9	195.7	-89	0	9.8899289683837	-21.0505431565123	55.1973723375272	312695.103361139	7671200.00470255	40	K	1772.235	348.5	312698.655015324	7671203.44540398	312691.551706954	7671196.56400113	-134.090922753676	Aug-14th-2024-10-57AM-Flight-Airdata	RGB	1	1	adult
20240814016A	2024-08-14 07:08:42.200000	19605	67.7	177.1	-89.9	0	10.8456506523106	-21.0508198268865	55.1972244539264	312680.079797364	7671169.19956868	40	K	1803.39	528.92	312682.226089698	7671174.17957508	312677.93350503	7671164.21956228	-156.68483516265	Aug-14th-2024-10-57AM-Flight-Airdata	RGB	1	2	adult
20240814016A	2024-08-14 07:09:11.800000	20491	67.5	275.8	-85.5	0	9.81665074979717	-21.0508221742643	55.1973927577991	312697.574896368	7671169.13743166	40	K	1317.215	323.17	312698.269263702	7671173.99639369	312696.880529035	7671164.27846963	-171.867240945513	Aug-14th-2024-10-57AM-Flight-Airdata	RGB	1	3	adult
20240814017A	2024-08-14 07:08:27.200000	19158	68	195.7	-89.9	0	9.83284807523471	-21.0505544755501	55.1974481957769	312703.001642444	7671198.84064783	40	K	1638.19	349.955	312704.784902712	7671203.42226415	312701.218382176	7671194.2590315	-158.732978583474	Aug-14th-2024-10-57AM-Flight-Airdata	RGB	1	1	adult
20240814017A	2024-08-14 07:08:54.600000	19978	67.7	275.8	-85.5	0	9.55633830822565	-21.0506343609919	55.1975856634465	312717.388930261	7671190.15768513	40	K	1259.5	463.115	312720.192082782	7671194.02721177	312714.58577774	7671186.28815849	-144.079773177172	Aug-14th-2024-10-57AM-Flight-Airdata	RGB	1	2	adult
20240814017A	2024-08-14 07:09:11.800000	20491	67.5	275.8	-85.5	0	7.07396409120708	-21.050817893859	55.1975506122293	312713.975667633	7671169.79679064	40	K	1366.99	584.305	312712.900769979	7671173.16648454	312715.050565287	7671166.42709673	162.307852674886	Aug-14th-2024-10-57AM-Flight-Airdata	RGB	1	3	adult
20240814018A	2024-08-14 07:11:34	24754	65.5	358.6	-90	0	10.6368792982988	-21.0513970663133	55.1938490767976	312329.993680863	7671101.32094075	40	K	1535.07	436.43	312326.127102638	7671104.97270377	312333.860259089	7671097.66917774	133.363381387425	Aug-14th-2024-10-57AM-Flight-Airdata	RGB	1	1	adult
20240814019A	2024-08-14 07:12:03.200000	25629	65	256.1	-90	0	9.77214047553297	-21.0512611812376	55.1936125649564	312305.242154457	7671116.08693801	40	K	1232.815	717.755	312302.52154386	7671120.1455043	312307.962765054	7671112.02837172	146.164556872636	Aug-14th-2024-10-57AM-Flight-Airdata	RGB	1	1	adult
20240814016A	2024-08-14 07:08:24.800000	19084	67.9	195.7	-89	0	8.21604617733192	-21.0506643186994	55.1979011180906	312750.212286373	7671187.21149471	40	K	773.81	394.155	312753.186522466	7671190.04518018	312747.23805028	7671184.37780923	-133.613723383142	Aug-14th-2024-10-57AM-Flight-Airdata	TIR	1	1	adult
20240814016A	2024-08-14 07:08:44	19660	67.8	177.1	-89.9	0	8.36145535807404	-21.0507999378746	55.1977447490938	312734.130232146	7671172.01283635	40	K	802.075	533.99	312736.024974888	7671175.73955527	312732.235489403	7671168.28611744	-153.050253047976	Aug-14th-2024-10-57AM-Flight-Airdata	TIR	1	2	adult
20240814016A	2024-08-14 07:09:18.200000	20687	67.5	275.8	-85.5	0	9.83734908436704	-21.0513202215511	55.1973242619099	312691.07935834	7671113.91597927	40	K	339.04	315.955	312691.883036031	7671118.76855193	312690.275680648	7671109.06340661	-170.596098431096	Aug-14th-2024-10-57AM-Flight-Airdata	TIR	1	3	adult
20240814017A	2024-08-14 07:08:28.200000	19186	68	195.7	-90	0	8.22796240767005	-21.0506833688111	55.1979546685723	312755.801735515	7671185.16527286	40	K	673.825	368.07	312757.30636743	7671188.99423149	312754.297103601	7671181.33631424	-158.54710234571	Aug-14th-2024-10-57AM-Flight-Airdata	TIR	1	1	adult
20240814017A	2024-08-14 07:08:54.600000	19978	67.7	275.8	-85.5	0	9.12116150457588	-21.0510755197233	55.1975686107319	312716.168698317	7671141.29506225	40	K	393.87	523.71	312718.801475384	7671145.01895561	312713.535921249	7671137.5711689	-144.739848610532	Aug-14th-2024-10-57AM-Flight-Airdata	TIR	1	2	adult
20240814017A	2024-08-14 07:09:15.800000	20611	67.5	275.8	-85.5	0	8.84620180812848	-21.0513012018146	55.1974908531619	312708.369660639	7671116.21746876	40	K	398.19	581.42	312706.458743561	7671120.20648086	312710.280577716	7671112.22845666	154.403472951089	Aug-14th-2024-10-57AM-Flight-Airdata	TIR	1	3	adult
20240814018A	2024-08-14 07:11:34	24754	65.5	358.6	-90	0	9.15051928043387	-21.0513632911637	55.1933036468916	312273.263812802	7671104.41813563	40	K	493.41	362.13	312269.97935894	7671107.60331437	312276.548266663	7671101.23295689	134.120877581442	Aug-14th-2024-10-57AM-Flight-Airdata	TIR	1	1	adult
20240814019A	2024-08-14 07:12:03.200000	25629	65	256.1	-90	0	9.95735778679946	-21.0517178304106	55.1937379039797	312318.841584598	7671065.67682055	40	K	267.625	730.75	312316.094123316	7671069.82877191	312321.589045879	7671061.5248692	146.506289284002	Aug-14th-2024-10-57AM-Flight-Airdata	TIR	1	1	adult
20240805005A	2024-08-05 12:56:06.500000	15508	81.5	180.3	-89.9	0	10.617042219678	-21.2074012617097	55.2783435285808	321298.638938023	7653926.97759109	40	K	1409.965	526.015	321298.079381125	7653932.25653914	321299.198494922	7653921.69864305	173.949366409671	Aug-5th-2024-04-46PM-Flight-Airdata	RGB	1	1	adult
20240805005A	2024-08-05 12:56:26.100000	16098	81.7	156.9	-90	0	10.6389404932567	-21.2076943556086	55.2785074205468	321316.006900156	7653894.71340786	40	K	1445.465	460.805	321315.045197519	7653899.9452232	321316.968602794	7653889.48159252	169.58426961775	Aug-5th-2024-04-46PM-Flight-Airdata	RGB	1	2	adult
20240805005A	2024-08-05 12:56:48.900000	16778	81.6	182.7	-89.9	0	7.96901480130045	-21.2077941841448	55.2786222372978	321328.047238568	7653883.79072851	40	K	1391.85	422.41	321327.515703092	7653887.7396232	321328.578774044	7653879.84183382	172.333858434811	Aug-5th-2024-04-46PM-Flight-Airdata	RGB	1	3	adult
20240805005A	2024-08-05 12:56:06.500000	15508	81.5	180.3	-89.9	0	7.83802128733737	-21.2073793135636	55.2789711677002	321363.773636997	7653930.11591059	40	K	443.415	573.11	321363.405648253	7653934.01760621	321364.141625741	7653926.21421497	174.612081892547	Aug-5th-2024-04-46PM-Flight-Airdata	TIR	1	1	adult
20240805005A	2024-08-05 12:56:26.100000	16098	81.7	156.9	-90	0	6.86357138392294	-21.2074267733262	55.2790756295592	321374.675911536	7653924.97939412	40	K	471.68	525.295	321373.931109044	7653928.32938252	321375.420714028	7653921.62940572	167.465314802615	Aug-5th-2024-04-46PM-Flight-Airdata	TIR	1	2	adult
20240805005A	2024-08-05 12:56:48.900000	16778	81.6	182.7	-89.9	0	8.09277195642964	-21.2077957148271	55.2792498892124	321393.211339537	7653884.32955688	40	K	427.485	470.955	321392.706087122	7653888.34427474	321393.716591952	7653880.31483902	172.827034091505	Aug-5th-2024-04-46PM-Flight-Airdata	TIR	1	3	adult
20240806001A	2024-08-06 06:32:39.300000	20508	91.4	308.7	-44.4	0	100.744177439906	-20.9965653724864	55.1774383408227	310555.088721688	7677152.60046134	40	K	1383.39	476.125	310584.385157081	7677111.62405111	310525.792286295	7677193.57687157	-65.5631969591315	Aug-6th-2024-10-21AM-Flight-Airdata	RGB	1	1	adult
20240806001A	2024-08-06 06:33:15.100000	21584	90.2	311.6	-46.3	0	9.38719610854189	-20.996519629032	55.1773864578228	310549.63667256	7677157.6034248	40	K	1384.835	338.225	310552.702379895	7677154.04937061	310546.570965224	7677161.157479	-70.7808719673301	Aug-6th-2024-10-21AM-Flight-Airdata	RGB	1	2	adult
20240806001A	2024-08-06 06:34:03.900000	23042	90.6	304.9	-42.9	0	16.4495425146467	-20.9966715539362	55.1768097379014	310489.866606275	7677140.09931968	40	K	1394.28	333.87	310495.505203946	7677134.11157565	310484.228008603	7677146.0870637	-73.2798886614736	Aug-6th-2024-10-21AM-Flight-Airdata	RGB	1	3	adult
20240806002A	2024-08-06 06:32:44.500000	20662	91.4	308.7	-44.4	0	11.4234631303584	-20.9965792846623	55.1775984143444	310571.74921316	7677151.24992992	40	K	1498.785	490.64	310574.956114674	7677146.52344495	310568.542311646	7677155.97641488	-64.1567383436242	Aug-6th-2024-10-21AM-Flight-Airdata	RGB	1	1	adult
20240806002A	2024-08-06 06:33:10.700000	21452	90.2	311.6	-46.3	0	11.6834403137077	-20.9964338404825	55.1774030977119	310551.258435958	7677167.12119641	40	K	1438.545	317.18	310554.852114696	7677162.51563808	310547.66475722	7677171.72675474	-67.9646190422333	Aug-6th-2024-10-21AM-Flight-Airdata	RGB	1	2	adult
20240806002A	2024-08-06 06:33:52.300000	22695	90.6	303	-41	0	11.8419860214196	-20.9966167527688	55.1768906028115	310498.204972882	7677146.26250283	40	K	1503.145	391.21	310502.061492466	7677141.76968468	310494.348453299	7677150.75532098	-70.641943259831	Aug-6th-2024-10-21AM-Flight-Airdata	RGB	1	3	adult
20240806002A	2024-08-06 06:34:00.100000	22928	90.5	303	-42.4	0	14.8643697551362	-20.9967029693646	55.176933660617	310502.790580816	7677136.76812167	40	K	1490.085	399.92	310508.17615048	7677131.64630447	310497.405011152	7677141.88993887	-76.4379150922168	Aug-6th-2024-10-21AM-Flight-Airdata	RGB	1	4	adult
20240806003A	2024-08-06 06:37:28.700000	29182	90.6	347.8	-51.2	0	13.6903636515024	-20.9924326719556	55.1751344757092	310310.331524512	7677607.41828458	40	K	1392.11	518.94	310311.240186017	7677600.63368079	310309.422863008	7677614.20288836	-67.6282260942953	Aug-6th-2024-10-21AM-Flight-Airdata	RGB	1	1	adult
20240806004A	2024-08-06 06:37:28.700000	29182	90.6	347.8	-51.2	0	14.995697846383	-20.9923899296392	55.1752251400787	310319.704206875	7677612.25807908	40	K	1487.205	500.07	310321.926175274	7677605.09703203	310317.482238476	7677619.41912614	-69.9429264634409	Aug-6th-2024-10-21AM-Flight-Airdata	RGB	1	1	adult
20240806001A	2024-08-06 06:32:39.300000	20508	91.4	308.7	-44.4	0	54.8835286750605	-20.9974433683452	55.1770044325123	310511.083644254	7677054.87903893	40	K	468.87	587.905	310536.046960405	7677043.48240449	310486.120328104	7677066.27567338	-65.4616296546578	Aug-6th-2024-10-21AM-Flight-Airdata	TIR	1	1	adult
20240806001A	2024-08-06 06:33:15.100000	21584	90.2	311.6	-46.3	0	12.1446185162017	-20.9973405647323	55.1766231315679	310471.309962502	7677065.80872457	40	K	415.89	350.56	310477.066898399	7677063.87724099	310465.553026605	7677067.74020814	-71.4531146133288	Aug-6th-2024-10-21AM-Flight-Airdata	TIR	1	2	adult
20240806001A	2024-08-06 06:34:03.900000	23042	90.6	304.9	-42.9	0	21.5203674323372	-20.9976664989852	55.1760943094865	310416.740060381	7677029.09573959	40	K	424.59	349.115	310427.249954094	7677026.78842779	310406.230166668	7677031.40305139	-77.6178806096179	Aug-6th-2024-10-21AM-Flight-Airdata	TIR	1	3	adult
20240806002A	2024-08-06 06:32:44.500000	20662	91.4	308.7	-44.4	0	14.3522455315392	-20.9973765098531	55.1770155798592	310512.158212768	7677062.29447063	40	K	540.395	542.23	310518.650413317	7677059.23700926	310505.66601222	7677065.35193199	-64.7822015401711	Aug-6th-2024-10-21AM-Flight-Airdata	TIR	1	1	adult
20240806002A	2024-08-06 06:33:10.700000	21452	90.2	311.6	-46.3	0	13.8873566056061	-20.9972884630179	55.1766672754584	310475.83380483	7677071.62950207	40	K	476.85	348.39	310482.366006551	7677069.27471779	310469.301603109	7677073.98428636	-70.1763443702909	Aug-6th-2024-10-21AM-Flight-Airdata	TIR	1	2	adult
20240806002A	2024-08-06 06:33:52.300000	22695	90.6	303	-41	0	13.4702867217227	-20.9976142560749	55.1762401351084	310431.835532092	7677035.05279235	40	K	541.455	409.355	310438.325981362	7677033.25384144	310425.345082822	7677036.85174325	-74.5082793934319	Aug-6th-2024-10-21AM-Flight-Airdata	TIR	1	3	adult
20240806002A	2024-08-06 06:34:00.100000	22928	90.5	303	-42.4	0	18.545267551262	-20.9976435685828	55.1762731208921	310435.302087468	7677031.84659736	40	K	526.205	402.1	310444.399563975	7677030.05281411	310426.204610962	7677033.64038061	-78.8458577060794	Aug-6th-2024-10-21AM-Flight-Airdata	TIR	1	4	adult
20240806003A	2024-08-06 06:37:28.700000	29182	90.6	347.8	-51.2	0	13.3399715437427	-20.992650501464	55.1742743897859	310221.180754403	7677582.28040481	40	K	429.69	560.995	310224.930216442	7677576.76404327	310217.431292364	7677587.79676635	-64.2038834908499	Aug-6th-2024-10-21AM-Flight-Airdata	TIR	1	1	adult
20240806004A	2024-08-06 06:37:28.700000	29182	90.6	347.8	-51.2	0	16.4878646932373	-20.9925963434679	55.1743626063581	310230.284462385	7677588.38123022	40	K	547.995	531.29	310235.795094858	7677582.24972548	310224.773829913	7677594.51273495	-71.9473222455287	Aug-6th-2024-10-21AM-Flight-Airdata	TIR	1	1	adult
20240809001A	2024-08-09 12:25:07.600000	1485	70.4	291	-83.7	0	9.21010326126478	-21.2042389907585	55.2765986103692	321113.67216021	7654275.1102351	40	K	1521.36	648.51	321113.318899065	7654270.51875309	321114.025421355	7654279.70171712	4.39957646494019	Aug-9th-2024-04-17PM-Flight-Airdata	RGB	1	1	adult
20240809001A	2024-08-09 12:25:33	2248	70.5	310.9	-83.7	0	7.74556965914344	-21.2041027900052	55.2767101736758	321125.09075969	7654290.31542553	40	K	1743.55	414.79	321125.384974074	7654286.45383256	321124.796545306	7654294.1770185	-4.35694221228891	Aug-9th-2024-04-17PM-Flight-Airdata	RGB	1	2	adult
20240809002A	2024-08-09 12:25:18	1797	70.4	256.6	-83.7	0	10.0402050879565	-21.2041685964738	55.2763739796075	321090.265788656	7654282.64995372	40	K	1690.885	519.39	321090.093629234	7654277.63280407	321090.437948078	7654287.66710338	1.96528710104743	Aug-9th-2024-04-17PM-Flight-Airdata	RGB	1	1	adult
20240809002A	2024-08-09 12:25:30.200000	2162	70.4	310.9	-83.7	0	8.96708449032917	-21.2041275566419	55.2766230201043	321116.072160389	7654287.47497881	40	K	1597.11	289.27	321116.422838332	7654283.00517165	321115.721482445	7654291.94478597	-4.48594158048134	Aug-9th-2024-04-17PM-Flight-Airdata	RGB	1	2	adult
20240809001A	2024-08-09 12:25:07.600000	1485	70.4	291	-83.7	0	8.93245750346507	-21.2047284297847	55.2764035667237	321094.012175425	7654220.70276122	40	K	514.33	668.705	321093.728070932	7654216.24557782	321094.296279917	7654225.15994462	3.64714557231591	Aug-9th-2024-04-17PM-Flight-Airdata	TIR	1	1	adult
20240809001A	2024-08-09 12:25:35.600000	2326	70.4	310.9	-83.7	0	9.48484662944689	-21.2044991713994	55.2763323892108	321086.346159163	7654246.00413117	40	K	766.09	484.035	321086.724494225	7654241.27682311	321085.967824101	7654250.73143922	-4.57573274503295	Aug-9th-2024-04-17PM-Flight-Airdata	TIR	1	2	adult
20240809002A	2024-08-09 12:25:18	1797	70.4	256.6	-83.7	0	7.97327436429769	-21.2047073808993	55.276479359485	321101.855719141	7654223.11878386	40	K	631.2	477.545	321101.834918678	7654219.13220094	321101.876519604	7654227.10536678	0.298944724254608	Aug-9th-2024-04-17PM-Flight-Airdata	TIR	1	1	adult
20240809002A	2024-08-09 12:25:38	2395	70.2	310.9	-83.7	0	13.7121253534173	-21.2045484203448	55.2762388083894	321076.689807248	7654240.445896	40	K	507.125	478.27	321077.089518139	7654233.60149488	321076.290096357	7654247.29029711	-3.34225948952477	Aug-9th-2024-04-17PM-Flight-Airdata	TIR	1	2	adult
20240809004A	2024-08-09 12:50:42.500000	24438	70.7	136.9	-90	0	10.5988254075906	-21.2057257158547	55.2780286378195	321263.929841372	7654112.12612857	40	K	1438.545	544.36	321263.832088739	7654117.42463963	321264.027594006	7654106.82761752	178.943065710669	Aug-9th-2024-04-36PM-Flight-Airdata	RGB	1	1	adult
20240809004A	2024-08-09 12:51:02.900000	25048	69.4	116.6	-90	0	9.23027140762644	-21.2061395942226	55.2781894497124	321281.123666773	7654066.48613124	40	K	1630.16	426.055	321280.350130019	7654071.03597942	321281.897203527	7654061.93628306	170.351188960357	Aug-9th-2024-04-36PM-Flight-Airdata	RGB	1	2	adult
20240809004A	2024-08-09 12:50:42.500000	24438	70.7	136.9	-90	0	10.5000734061803	-21.2052953100428	55.2784371312353	321305.821812534	7654160.23859125	40	K	365.805	645.245	321305.614547591	7654165.48453507	321306.029077477	7654154.99264742	177.737445642364	Aug-9th-2024-04-36PM-Flight-Airdata	TIR	1	1	adult
20240809004A	2024-08-09 12:51:02.900000	25048	69.4	116.6	-90	0	9.12882690102579	-21.2056440728064	55.278422049431	321304.675793098	7654121.60914688	40	K	594.435	482.66	321303.985834259	7654126.12111175	321305.365751937	7654117.09718202	171.305817076091	Aug-9th-2024-04-36PM-Flight-Airdata	TIR	1	2	adult
20240729001A	2024-07-29 11:58:57.200000	3875	90.3	316	-89.9	0	12.1936798938604	-21.0103602826815	55.209829277765	313939.878910822	7675663.37755959	40	K	1427.26	412.62	313944.163680433	7675659.04025551	313935.594141211	7675667.71486368	-44.6508999531046	Jul-29th-2024-03-56PM-Flight-Airdata	RGB	1	1	adult
20240729001A	2024-07-29 11:59:12.200000	4319	90.4	316	-90	0	12.0806251922133	-21.009949288734	55.2099504650259	313951.967628785	7675709.02122346	40	K	1497.11	553.76	313955.793063462	7675704.34667259	313948.142194109	7675713.69577432	-39.2952957890818	Jul-29th-2024-03-56PM-Flight-Airdata	RGB	1	2	adult
20240729001A	2024-07-29 11:59:31.200000	4893	90.2	316	-90	0	11.0959403192584	-21.0095837960815	55.2098880265475	313945.02311179	7675749.41338046	40	K	1447.42	405.42	313948.350536518	7675744.97398663	313941.695687062	7675753.85277429	-36.852377158495	Jul-29th-2024-03-56PM-Flight-Airdata	RGB	1	3	adult
20240729001A	2024-07-29 11:59:54	5576	90.1	323.9	-89.9	0	11.5576982246788	-21.0090784902988	55.2099328127024	313949.052244852	7675805.40960882	40	K	1376.13	295.96	313952.441071821	7675800.72869557	313945.663417883	7675810.09052206	-35.9032998662719	Jul-29th-2024-03-56PM-Flight-Airdata	RGB	1	4	adult
20240729001A	2024-07-29 12:00:14.600000	6193	90.1	323.9	-90	0	10.2959457720225	-21.0085589438307	55.2099339448228	313948.525449026	7675862.93161518	40	K	1453.91	292.37	313951.649162932	7675858.83966745	313945.40173512	7675867.02356292	-37.3574153125369	Jul-29th-2024-03-56PM-Flight-Airdata	RGB	1	5	adult
20240729001A	2024-07-29 12:00:26.200000	6541	90.1	331.7	-90	0	12.3072506273746	-21.0082942792942	55.2100101825524	313956.122893455	7675892.32229016	40	K	1494.23	354.29	313959.524234566	7675887.19413424	313952.721552343	7675897.45044608	-33.5550386797695	Jul-29th-2024-03-56PM-Flight-Airdata	RGB	1	6	adult
20240729001A	2024-07-29 12:00:49.200000	7231	90.2	27.1	-89.9	0	10.2873068313607	-21.0081333036083	55.2100317709917	313958.167577417	7675910.16957777	40	K	1215.55	461.595	313961.259010147	7675906.05859077	313955.076144687	7675914.28056478	-36.9429032659524	Jul-29th-2024-03-56PM-Flight-Airdata	RGB	1	7	adult
20240729001A	2024-07-29 12:01:01	7581	90	27.1	-90	0	8.44588561745726	-21.0078834550695	55.2100738408716	313962.231310887	7675937.88012187	40	K	1230.67	393.905	313964.635255216	7675934.40819192	313959.827366558	7675941.35205183	-34.6985058380822	Jul-29th-2024-03-56PM-Flight-Airdata	RGB	1	8	adult
20240729001A	2024-07-29 11:58:57.200000	3875	90.3	316	-89.9	0	10.2347931578736	-21.0108896906161	55.2094113232146	313897.085493983	7675604.27809256	40	K	465.91	568.17	313900.603841299	7675600.56204898	313893.567146667	7675607.99413615	-43.4346514481851	Jul-29th-2024-03-56PM-Flight-Airdata	TIR	1	1	adult
20240729001A	2024-07-29 11:59:11	4288	90.2	316	-90	0	10.7742074162919	-21.010432335323	55.2094207158345	313897.494388941	7675654.92435727	40	K	563.85	607.05	313900.88387388	7675650.73720094	313894.104904002	7675659.11151361	-38.9900201460808	Jul-29th-2024-03-56PM-Flight-Airdata	TIR	1	2	adult
20240729001A	2024-07-29 11:59:31.200000	4893	90.2	316	-90	0	7.81947301277519	-21.0100834550415	55.2094153601174	313896.504674924	7675693.54380693	40	K	460.15	483.915	313898.942890444	7675690.48747831	313894.066459404	7675696.60013555	-38.5814513144585	Jul-29th-2024-03-56PM-Flight-Airdata	TIR	1	3	adult
20240729001A	2024-07-29 11:59:54	5576	90.1	323.9	-89.9	0	10.9655469666037	-21.0095136076911	55.2094105962965	313895.302301244	7675756.62793873	40	K	409.02	392.46	313898.735130792	7675752.35283799	313891.869471696	7675760.90303948	-38.7638422290347	Jul-29th-2024-03-56PM-Flight-Airdata	TIR	1	4	adult
20240729001A	2024-07-29 12:00:14.600000	6193	90.1	323.9	-90	0	11.2505489760124	-21.0090060178773	55.2094251554305	313896.186020269	7675812.84184465	40	K	492.56	410.46	313899.751908319	7675808.49119465	313892.620132219	7675817.19249466	-39.338796867025	Jul-29th-2024-03-56PM-Flight-Airdata	TIR	1	5	adult
20240729001A	2024-07-29 12:00:26.200000	6541	90.1	331.7	-90	0	9.75963017311494	-21.0086139336405	55.2094126204362	313894.396357624	7675856.23617578	40	K	537.92	385.26	313896.9235956	7675852.06177002	313891.869119648	7675860.41058155	-31.1912421829366	Jul-29th-2024-03-56PM-Flight-Airdata	TIR	1	6	adult
20240729001A	2024-07-29 12:00:49.200000	7231	90.2	27.1	-89.9	0	8.56975899472355	-21.0078844859369	55.2094360765923	313895.929778528	7675937.0230568	40	K	309.65	517.045	313898.469867572	7675933.57223951	313893.389689484	7675940.47387409	-36.3561646642702	Jul-29th-2024-03-56PM-Flight-Airdata	TIR	1	7	adult
20240729001A	2024-07-29 12:01:01	7581	90	27.1	-90	0	9.06606115548536	-21.0076013090157	55.2094727350724	313899.389491438	7675968.41721244	40	K	294.53	414.785	313901.880680431	7675964.63008376	313896.898302444	7675972.20434112	-33.3370851622718	Jul-29th-2024-03-56PM-Flight-Airdata	TIR	1	8	adult
20240811001A	2024-08-11 05:26:56.800000	681	80.1	133.3	-90	0	10.6333579751686	-20.97036083932	55.1752630020557	310295.818797623	7680051.24337183	40	K	1420.4	613.31	310290.781813966	7680052.94509774	310300.85578128	7680049.54164591	108.66734561936	Aug-11th-2024-09-23AM-Flight-Airdata	RGB	3	1	adult
20240811001A	2024-08-11 05:27:00.400000	790	80.1	124	-89.9	0	8.93894347058498	-20.9703560066331	55.1755358581297	310324.186674056	7680052.10190787	40	K	1093.785	354.195	310319.911396573	7680050.7987655	310328.461951539	7680053.40505024	73.0483151647582	Aug-11th-2024-09-23AM-Flight-Airdata	RGB	3	2	adult
20240811001A	2024-08-11 05:27:35.400000	1843	80.1	121.8	-89.9	0	11.0629287662253	-20.9711446764676	55.1751660247636	310286.723779305	7679964.34632035	40	K	1291.205	537.095	310281.254857954	7679963.51686422	310292.192700656	7679965.17577649	81.3758342680436	Aug-11th-2024-09-23AM-Flight-Airdata	RGB	3	3	adult
20240811002A	2024-08-11 05:26:56.800000	684	80.1	133.3	-90	0	9.15069699148876	-20.9704321424056	55.1754871290282	310319.215490395	7680043.61481435	40	K	1260.725	305.57	310314.642403428	7680043.75865263	310323.788577362	7680043.47097607	91.8015424345006	Aug-11th-2024-09-23AM-Flight-Airdata	RGB	3	1	adult
20240811002A	2024-08-11 05:27:11.400000	1120	79.9	124	-89.9	0	11.1856097937126	-20.9707027061367	55.1754690553803	310317.677540821	7680013.63808835	40	K	1259.27	277.985	310312.087699771	7680013.45603438	310323.267381872	7680013.82014231	88.1346091923608	Aug-11th-2024-09-23AM-Flight-Airdata	RGB	3	2	adult
20240811002A	2024-08-11 05:27:20.200000	1383	80.1	121.8	-89.9	0	10.8858999041093	-20.9709366136894	55.1752479867892	310294.984213169	7679987.47905231	40	K	1395.725	447.825	310289.624826876	7679986.52895614	310300.343599462	7679988.42914849	79.9472152191314	Aug-11th-2024-09-23AM-Flight-Airdata	RGB	3	3	adult
20240811002A	2024-08-11 05:27:36.400000	1869	80	121.8	-89.9	0	10.7985285719629	-20.9712418659464	55.1752127382514	310291.704127593	7679953.64143414	40	K	1357.255	394.11	310286.4872145	7679952.25007775	310296.921040687	7679955.03279053	75.0667416577117	Aug-11th-2024-09-23AM-Flight-Airdata	RGB	3	4	adult
20240811001A	2024-08-11 05:26:56.800000	681	80.1	133.3	-90	0	13.5176109226915	-20.969938940106	55.1756836895172	310339.033131283	7680098.4524125	40	K	454.35	626.37	310332.582910298	7680100.47134799	310345.483352269	7680096.43347701	107.380252097958	Aug-11th-2024-09-23AM-Flight-Airdata	TIR	3	1	adult
20240811001A	2024-08-11 05:27:00.400000	790	80.1	124	-89.9	0	9.66144235831588	-20.9699173209391	55.1757624052359	310347.191423794	7680100.93926933	40	K	295.4	472.495	310342.453001352	7680099.99947155	310351.929846236	7680101.87906712	78.7817929719398	Aug-11th-2024-09-23AM-Flight-Airdata	TIR	3	2	adult
20240811001A	2024-08-11 05:27:43	2068	80.2	121.8	-89.9	0	15.0584043169082	-20.9707536510705	55.1753955465165	310310.097765651	7680007.91060165	40	K	321.535	560.32	310302.629015542	7680006.9584163	310317.56651576	7680008.86278701	82.7345975874899	Aug-11th-2024-09-23AM-Flight-Airdata	TIR	3	3	adult
20240811002A	2024-08-11 05:26:56.800000	684	80.1	133.3	-90	0	10.0087589773908	-20.9700195756691	55.1758456124514	310355.973102537	7680089.71682519	40	K	375.97	376.69	310350.983046611	7680090.09518471	310360.963158463	7680089.33846568	94.3360240205438	Aug-11th-2024-09-23AM-Flight-Airdata	TIR	3	1	adult
20240811002A	2024-08-11 05:27:11.400000	1120	79.9	124	-89.9	0	10.0175138958381	-20.9702286202902	55.1757168205664	310342.843976116	7680066.41992332	40	K	386.85	401.365	310337.835254692	7680066.4387875	310347.85269754	7680066.40105915	90.2157901096208	Aug-11th-2024-09-23AM-Flight-Airdata	TIR	3	2	adult
20240811002A	2024-08-11 05:27:30.600000	1696	80.1	121.8	-89.9	0	9.51459885640456	-20.9705992629057	55.1753775018983	310308.026452331	7680024.98220103	40	K	496.455	637.26	310303.387832649	7680023.92621557	310312.665072014	7680026.03818649	77.175137864431	Aug-11th-2024-09-23AM-Flight-Airdata	TIR	3	3	adult
20240811002A	2024-08-11 05:27:42.800000	2059	80.2	121.8	-89.9	0	12.6482588205383	-20.9708436406681	55.175478572662	310318.845118014	7679998.04588992	40	K	381.775	388.31	310312.735492717	7679996.41276667	310324.954743312	7679999.67901316	75.0345314100984	Aug-11th-2024-09-23AM-Flight-Airdata	TIR	3	4	adult
